data_format,development_key,status,year_completed,street_address,property_id,floors_above,town_planning_application,longitude,latitude
Post May 16,X0003217,COMPLETED,2023,"404-418 Spencer Street, West Melbourne, 3003",108948,20,TP-2018-63/A,144.9506416,-37.8106576
Post May 16,X0010004,COMPLETED,2023,11-49 Galada Avenue PARKVILLE VIC 3052,653559,15,ID-2020-8,144.9402265,-37.78154204
Post May 16,X0007608,COMPLETED,2023,"1 Lennon Street, West Melbourne, 3003",105528,3,TP-2019-852,144.9276447,-37.80056882
Post May 16,X001536,COMPLETED,2023,273-279 Little Collins Street MELBOURNE VIC 3000,105922,3,TP-2016-683,144.9653695,-37.81490297
Post May 16,X0006809,COMPLETED,2023,172-184 Roden Street WEST MELBOURNE VIC 3003,108367,7,TP-2018-88/A,144.9460503,-37.80853781
Post May 16,X0008015,COMPLETED,2024,"23-29 Victoria Street, MELBOURNE, 3000",109679,25,TP-2017-461/A,144.9668,-37.8073
Post May 16,X0008020,COMPLETED,2024,"550-558 Spencer Street, West Melbourne, 3003",108934,8,TP-2020-12,144.9479085,-37.80733728
Post Oct 2022,X0014400,COMPLETED,2024,477-479 St Kilda Road MELBOURNE VIC 3004,108638,0,TP-2023-149,144.9785583,-37.84188076
Post May 16,X0004409,APPLIED,,207 Kensington Road WEST MELBOURNE VIC 3003,105226,10,TP-2018-512,144.9165074,-37.80087212
Post May 16,X0011803,APPLIED,,"566-580 Flinders Street, Melbourne, 3000",103984,21,TP-2021-704,144.9553364,-37.82071126
Post May 16,X0013003,APPLIED,,"707 Collins Street, Docklands, 3008",605909,40,TPM-2022-8,144.9511384,-37.82088296
Post Oct 22,X0013707,APPLIED,,"303 Collins Street, Melbourne, 3000",110762,2,TP-2022-511,144.9638217,-37.81662849
Post Oct 22,X0014101,APPLIED,,351-387 Ingles Street PORT MELBOURNE VIC 3207,110860,1,TP-2016-1000/B,144.9336175,-37.82345847
Post Oct 2022,X0014401,APPLIED,,376-388 Flinders Street MELBOURNE VIC 3000,104002,16,TP-2023-161,144.9615549,-37.81884327
Post Oct 2022,X0014703,APPLIED,,58-66 La Trobe Street MELBOURNE VIC 3000,105491,42,TPM-2023-8,144.9669434,-37.80829651
Post Oct 2022,X0014804,APPLIED,,65-159 Victoria Street MELBOURNE VIC 3000,108118,29,TPMR-2023-12,144.9576396,-37.80783394
Post Oct 2022,X0014805,APPLIED,,65-159 Victoria Street MELBOURNE VIC 3000,108118,47,TPMR-2023-12,144.9576396,-37.80783394
Post Oct 2022,X0014902,APPLIED,,209-231 Little Collins Street MELBOURNE VIC 3000,105917,1,TP-2023-548,144.9670805,-37.81446448
Post Oct 2022,X0015100,APPLIED,,774-782 Elizabeth Street MELBOURNE VIC 3000,101048,0,PAM-2023-582,144.9584107,-37.80041001
Post Oct 2022,X0015202,APPLIED,,65-159 Victoria Street MELBOURNE VIC 3000,108118,54,TPMR-2023-21,144.9576396,-37.80783394
Post Oct 2022,X0015203,APPLIED,,366-422 Abbotsford Street NORTH MELBOURNE VIC 3051,100108,5,TPM-2021-5/B,144.9468176,-37.79748714
Post Oct 2022,X0015204,APPLIED,,366-422 Abbotsford Street NORTH MELBOURNE VIC 3051,100108,5,TPM-2021-5/B,144.9468176,-37.79748714
Post Oct 2022,X0015302,APPLIED,,223-245 Salmon Street PORT MELBOURNE VIC 3207,110509,4,ID-2023-3,144.917861,-37.82401808
Post Oct 2022,X0015303,APPLIED,,223-245 Salmon Street PORT MELBOURNE VIC 3207,110509,3,ID-2023-3,144.917861,-37.82401808
Post Oct 2022,X0015304,APPLIED,,223-245 Salmon Street PORT MELBOURNE VIC 3207,110509,2,ID-2023-3,144.917861,-37.82401808
Post Oct 2022,X0015307,APPLIED,,"292 City Road, Southbank, 3006",110396,33,TP-2019-979/B,144.9586155,-37.82675831
Post Oct 2022,X0015507,APPLIED,,"118 City Road, Southbank, 3006",110384,102,TPMR-2019-24/F,144.9629471,-37.8229282
Post Oct 2022,X0015509,APPLIED,,"140 Harbour Esplanade, Docklands, 3008",558180,31,ID-2024-2,144.9474709,-37.81648708
Post Oct 2022,X0015510,APPLIED,,"140 Harbour Esplanade, Docklands, 3008",558180,27,ID-2024-2,144.9474709,-37.81648708
Post Oct 2022,X0015512,APPLIED,,111-129 Bourke Street MELBOURNE VIC 3000,103597,0,TP-2024-95,144.9701094,-37.81281423
Post Oct 2022,X0015701,APPLIED,,50-52 Victoria Street CARLTON VIC 3053,109854,4,TP-2024-243,144.9667592,-37.80676885
Post Oct 2022,X0015803,APPLIED,,127-129 Kavanagh Street SOUTHBANK VIC 3006,110412,48,TPMR-2010-28/C,144.9620288,-37.82660041
Post Oct 2022,X0015804,APPLIED,,371-389 La Trobe Street MELBOURNE VIC 3000,105457,71,TPMR-2016-14/A,144.9581378,-37.81163992
Post Oct 2022,X0015806,APPLIED,,"28 Clarendon Street, Southbank, 3006",110485,28,TP-2021-345/A,144.9563174,-37.82493678
Post Oct 2022,X0015807,APPLIED,,731-739 Flinders Street DOCKLANDS VIC 3008,103983,19,TPD-2012-32/F,144.9506,-37.8229
Post Oct 2022,X0015808,APPLIED,,276-278 Rosslyn Street WEST MELBOURNE VIC 3003,108417,5,TP-2024-364,144.9461125,-37.81059194
Post Oct 2022,X0015809,APPLIED,,"203-207 Lonsdale Street, Melbourne, 3000",105690,8,TP-2020-30/A,144.966354,-37.81133115
Post Oct 2022,X0015810,APPLIED,,"42 Moray Street, Southbank, 3006",110635,58,TPMR-2016-22/C,144.9604137,-37.82754797
Post Oct 2022,X0015814,APPLIED,,10 Radcliffe Street WEST MELBOURNE VIC 3003,108120,2,TP-2024-435,144.9321014,-37.80259465
Post May 16,X0012600,APPROVED,,"204-208 Albert Street, East Melbourne 3002",100363,7,TP-2022-23,144.9843298,-37.81013567
Post Oct 22,X0014011,APPROVED,,"218-246 Macaulay Road, North Melbourne, 3051",617399,12,TPM-2022-21,144.9383988,-37.79483181
Post Oct 2022,X0015207,APPROVED,,8 Collins Street MELBOURNE VIC 3000,102172,10,TP-2023-770,144.9732576,-37.81314305
Post Oct 2022,X0014900,APPROVED,,24 Little Docklands Drive DOCKLANDS VIC 3008,698068,19,TPM-2023-13,144.9401322,-37.81243429
Post Oct 2022,X0014903,APPROVED,,4-12 Leicester Place CARLTON VIC 3053,105507,15,TP-2017-616/A,144.9611847,-37.80275817
Post Oct 2022,X0015200,APPROVED,,505-515 Little Collins Street MELBOURNE VIC 3000,105940,0,TP-2023-733,144.9577987,-37.81719661
Post Oct 2022,X0014205,APPROVED,,"Lonsdale Court 600 Lonsdale Street, Melbourne, 3000",105720,40,TPMR-2019-20/D,144.9542959,-37.81419965
Post Oct 2022,X0014706,APPROVED,,"60 Collins Street, Melbourne, 3000",102164,38,TPMR-2019-25/C,144.9716239,-37.81362025
Post Oct 22,X0014005,APPROVED,,559-577 King Street WEST MELBOURNE VIC 3003,105347,6,TPM-2022-20,144.9497506,-37.80696616
Post May 16,X0011804,APPROVED,,"620-648 Little Bourke Street, Melbourne, 3000",110704,25,TP-2021-709,144.9535766,-37.81572243
Post May 16,X0006802,APPROVED,,"180-194 Kensington Road, West Melbourne, 3003",105232,0,TP-2019-246,144.9171858,-37.79957845
Post May 16,X0006803,APPROVED,,"180-194 Kensington Road, West Melbourne, 3003",105232,0,TP-2019-246,144.9171858,-37.79957845
Post May 16,X0013402,APPROVED,,"292 City Road, Southbank, 3006",110396,28,TP-2019-979/A,144.9586155,-37.82675831
Post May 16,X0013403,APPROVED,,"490 Flinders Street, Melbourne, 3000",103996,24,TP-2022-358,144.9579911,-37.81995062
Post May 16,X0007413,APPROVED,,"42 Moray Street, Southbank, 3006",110635,56,TPMR-2016-22/A,144.9604137,-37.82754797
Post Oct 2022,X0014801,APPROVED,,"680 Elizabeth Street, Melbourne, 3000",103265,20,TP-2020-609/A,144.9583656,-37.80249304
Post Oct 2022,X0014300,APPROVED,,"Langham Hotel, 1 Southgate Avenue, Southbank, 3006",110323,1,TP-2023-75,144.9663018,-37.82070671
Post Oct 22,X0013703,APPROVED,,"82-84 Jolimont Street, East Melbourne, 3002",105134,6,TP-2022-474,144.979993,-37.81822581
Post May 16,X000769,APPROVED,,85-93 Lorimer Street DOCKLANDS VIC 3008,110530,43,TPM-2014-19/A,144.9414558,-37.82447858
Post Oct 2022,X0014201,APPROVED,,386-412 William Street MELBOURNE VIC 3000,104089,34,TPM-2013-28/C,144.9561274,-37.80984028
Post Oct 2022,X0014202,APPROVED,,386-412 William Street MELBOURNE VIC 3000,104089,3,TPM-2013-28/C,144.9561274,-37.80984028
Post May 16,X0011606,APPROVED,,51-65 Clarke Street SOUTHBANK VIC 3006,110463,70,TPM-2016-4/B,144.9597,-37.8273
Post May 16,X0013001,APPROVED,,"186-190 Lygon Street, Carlton, 3053",106239,6,TP-2022-195,144.9669213,-37.80264008
Post Oct 22,X0014010,APPROVED,,"Hotel Grand Chancellor/Lonsdale Heights Apartments, 131-137 Lonsdale Street, Melbourne, 3000",105679,3,TP-2019-712/A,144.9685148,-37.81092689
Post May 16,X0011210,APPROVED,,"355-369 Spencer Street, West Melbourne, 3003",598605,20,TPM-2019-4/A,144.9504,-37.8119
Post May 16,X0011211,APPROVED,,"355-369 Spencer Street, West Melbourne, 3003",598605,6,TPM-2019-4/A,144.9504,-37.8119
Post Oct 22,X0014007,APPROVED,,274-278 Little Lonsdale Street MELBOURNE VIC 3000,106045,32,TP-2016-290/A,144.9611832,-37.81117946
Post May 16,X0010600,APPROVED,,"101 Powlett Street, East Melbourne, 3002",107632,3,TP-2021-110,144.9853029,-37.81337466
Post May 16,X0012802,APPROVED,,162-188 Turner Street PORT MELBOURNE VIC 3207,110555,32,ID-2022-2,144.9322526,-37.8249071
Post May 16,X0012804,APPROVED,,162-188 Turner Street PORT MELBOURNE VIC 3207,110555,41,ID-2022-2,144.9322526,-37.8249071
Post May 16,X0012806,APPROVED,,162-188 Turner Street PORT MELBOURNE VIC 3207,110555,53,ID-2022-2,144.9322526,-37.8249071
Post May 16,X0005800,APPROVED,,"501-509 King Street, West Melbourne, 3003",105338,5,TP-2019-22,144.9511,-37.8081
Post May 16,X0012809,APPROVED,,"41-47 Walsh Street, South Yarra, 3141",109873,4,TP-2022-143,144.9846478,-37.83689531
Post May 16,X0013202,APPROVED,,"114-118 Miller Street, West Melbourne, 3003",106597,3,TP-2022-272,144.9438011,-37.8052711
Post May 16,X0003801,APPROVED,,695-699 La Trobe Street DOCKLANDS VIC 3008,589576,27,TPD-2010-9/C,144.9456129,-37.81519136
Post May 16,X0011201,APPROVED,,"28 Clarendon Street, Southbank, 3006",110485,26,TP-2021-345,144.9563174,-37.82493678
Post May 16,X0011608,APPROVED,,"50 The Avenue, Parkville, 3052",100624,3,TP-2021-629,144.9574563,-37.78703649
Post May 16,X0005614,APPROVED,,Melbourne Central 183-265 La Trobe Street MELBOURNE VIC 3000,105746,14,ID-2018-3,144.9627706,-37.81050923
Post May 16,X0012801,APPROVED,,"Brunton Avenue, East Melbourne, 3002",110264,4,ID-2022-1,144.9872722,-37.81975517
Post May 16,X0007801,APPROVED,,"9-101 Alfred Street, North Melbourne, 3051",616891,12,TPM-2019-28,144.9381455,-37.79097555
Post May 16,X0009216,APPROVED,,"12 Riverside Quay, Southbank, 3006",110333,30,ID-2020-4,144.9647448,-37.8207003
Post May 16,X0010003,APPROVED,,"25-35 Power Street, Southbank, 3006",575159,51,ID-2020-7,144.961857,-37.82320413
Post May 16,X0011207,APPROVED,,"570-576 Little Bourke Street, Melbourne, 3000",105384,22,TPMR-2021-11,144.9553,-37.8148
Post May 16,X0011401,APPROVED,,266-270 Queen Street MELBOURNE VIC 3000,108095,18,TP-2021-465,144.9598385,-37.81227452
Post May 16,X0007605,APPROVED,,"363 King Street, West Melbourne, 3003",105324,16,TP-2019-834,144.9532647,-37.81183421
Post May 16,X0003601,APPROVED,,372-378 Little Bourke Street MELBOURNE VIC 3000,105871,18,TP-2018-120,144.9614805,-37.81342468
Post May 16,X0011605,APPROVED,,293-297 City Road SOUTHBANK VIC 3006,110376,38,TPM-2015-28/A,144.9588,-37.8276
Post May 16,X0010001,APPROVED,,"140-142 Jolimont Road, East Melbourne, 3002",105125,9,TP-2020-736,144.9792237,-37.81730504
Post May 16,X0011000,APPROVED,,"41-45 A'Beckett Street, Melbourne, 3000",100151,8,TP-2021-253,144.9622607,-37.8090434
Post May 16,X0009408,APPROVED,,87-89 Flemington Road NORTH MELBOURNE VIC 3051,103821,13,TP-2016-378/A,144.953,-37.7987
Post May 16,X0010602,APPROVED,,"366-422 Abbotsford Street, North Melbourne, 3051",100108,5,TPM-2021-5,144.9468176,-37.79748714
Post May 16,X0001651,APPROVED,,6 Marne Street SOUTH YARRA VIC 3141,106467,3,TP-2017-185,144.9840404,-37.83741687
Post May 16,X0009402,APPROVED,,24-28 Chetwynd Street WEST MELBOURNE VIC 3003,101967,4,TP-2017-145/A,144.9522,-37.8073
Post May 16,X0009406,APPROVED,,"396-400 Spencer Street, West Melbourne, 3003",108949,13,TP-2020-549,144.9508615,-37.81114222
Post May 16,X0008014,APPROVED,,81-89 Bouverie Street CARLTON VIC 3053,101244,9,TP-2017-402/A,144.9614,-37.8046
Post May 16,X0008606,APPROVED,,310-324 Ingles Street PORT MELBOURNE VIC 3207,110580,2,TP-2015-578/A,144.937,-37.8248
Post May 16,X0008608,APPROVED,,175-187 Sturt Street SOUTHBANK VIC 3006,110617,17,TP-2016-596/A,144.9663,-37.8287
Post May 16,X0008003,APPROVED,,"470 Bourke Street, Melbourne, 3000",101181,11,TP-2019-968,144.9596951,-37.81469626
Post May 16,X0008815,APPROVED,,272-282 Queen Street MELBOURNE VIC 3000,108094,67,TPM-2014-46/A,144.9598,-37.8121
Post May 16,X0007416,APPROVED,,"103 Boundary Road, North Melbourne, 3051",616849,12,TPM-2019-22,144.9392591,-37.7913417
Post May 16,X0006202,APPROVED,,"685 Elizabeth Street, Melbourne, 3000",103254,19,TPM-2019-5,144.9570695,-37.80230894
Post May 16,X0007425,APPROVED,,"118 City Road, Southbank, 3006",110384,100,TPMR-2019-24/B,144.9629471,-37.8229282
Post May 16,X0006408,APPROVED,,"10 Radcliffe Street, West Melbourne, 3003",108120,2,TP-2019-307/A,144.9321014,-37.80259465
Post May 16,X0002608,APPROVED,,7-19 Alfred Place MELBOURNE VIC 3000,100398,23,TP-2017-798,144.9699104,-37.81401286
Post May 16,X0006601,APPROVED,,"42-52 Walsh Street, West Melbourne, 3003",109949,0,TP-2019-399,144.9529221,-37.80813094
Post May 16,X0004603,APPROVED,,54 Clarke Street SOUTHBANK VIC 3006,110466,25,TP-2018-570,144.9591642,-37.82755227
Post May 16,X001562,APPROVED,,58-66 La Trobe Street MELBOURNE VIC 3000,105491,34,TP-2016-858,144.9669434,-37.80829651
Post May 16,X001354,APPROVED,,28-32 Albermarle Street KENSINGTON VIC 3031,100304,8,TP-2015-1203,144.9336766,-37.79540759
Post May 16,X0004803,APPROVED,,21-23 Anthony Street MELBOURNE VIC 3000,100445,11,TP-2018-668,144.9588155,-37.80905854
Post May 16,X0005001,APPROVED,,"87-105 Racecourse Road, North Melbourne, 3051",616843,12,TP-2018-770,144.9389291,-37.78983527
Post May 16,X0003804,APPROVED,,87-89 Queens Bridge Street SOUTHBANK VIC 3006,108049,47,ID-2016-6,144.9609935,-37.82460797
Post May 16,X0001625,APPROVED,,56-58 Clarendon Street SOUTHBANK VIC 3006,110488,49,TPMR-2016-30/B,144.9571325,-37.82649246
Post May 16,X0002002,APPROVED,,"563 Little Lonsdale Street, MELBOURNE, 3000",106025,25,TP-2017-457/A,144.9551546,-37.81337096
Post May 16,X0001802,APPROVED,,422-428 Little Collins Street MELBOURNE VIC 3000,105954,22,TP-2017-382/A,144.9603263,-37.81590754
Post May 16,X001349,APPROVED,,696-708 Elizabeth Street MELBOURNE VIC 3000,103261,22,TP-2016-240,144.9580698,-37.80210503
Post May 16,X001356,APPROVED,,The District Docklands 420-454 Docklands Drive DOCKLANDS VIC 3008,593737,3,TP-2015-1095,144.9377585,-37.81317308
Post May 16,X000964,UNDER CONSTRUCTION,,63 Manningham Street PARKVILLE VIC 3052,106392,3,TP-2014-445/B,144.941666,-37.78659441
Post May 16,X001544,UNDER CONSTRUCTION,,"68-72 Chapman Street, North Melbourne, 3051",505958,3,TP-2016-441,144.9482764,-37.79561099
Post May 16,X0001649,UNDER CONSTRUCTION,,"137 Stanley Street, West Melbourne, 3003",109015,4,TP-2017-147,144.9474565,-37.80962821
Post May 16,X0005625,COMPLETED,2024,681-691 Collins Street DOCKLANDS VIC 3008,620753,32,TPMR-2016-23/A,144.9527841,-37.82053622
Post May 16,X0010006,UNDER CONSTRUCTION,,685-691 La Trobe Street DOCKLANDS VIC 3008,589577,30,TPM-2016-5/B,144.9465,-37.815
Post May 16,X0003604,UNDER CONSTRUCTION,,86-108 Laurens Street NORTH MELBOURNE VIC 3051,105502,14,TPM-2018-9,144.9418759,-37.8029614
Post May 16,X0011203,UNDER CONSTRUCTION,,"545 St Kilda Road, Melbourne, 3004",108648,7,TP-2021-357,144.9801471,-37.84633834
Post May 16,X0008019,UNDER CONSTRUCTION,,"124-130 Russell Street, Melbourne, 3000",108589,15,TP-2020-9,144.9686598,-37.8133077
Post May 16,X0008800,UNDER CONSTRUCTION,,731-739 Flinders Street DOCKLANDS VIC 3008,103983,20,TPD-2012-32/B,144.9506,-37.8229
Post May 16,X0011204,UNDER CONSTRUCTION,,"372-376 Albert Street, East Melbourne, 3002",100353,10,TP-2020-346/B,144.9787,-37.8096
Post May 16,X0013601,UNDER CONSTRUCTION,,7-23 Spencer Street DOCKLANDS VIC 3008,103975,21,TPMR-2014-35/E,144.9548,-37.822
Post May 16,X0011005,UNDER CONSTRUCTION,,"86-96 Stubbs Street, Kensington, 3031",615433,8,TPM-2021-9,144.934955,-37.79248256
Post May 16,X0005620,UNDER CONSTRUCTION,,"687 Queensberry Street, North Melbourne, 3051",107944,4,TP-2018-1171,144.9442887,-37.80274187
Post May 16,X0011603,UNDER CONSTRUCTION,,"235-251 Bourke Street, Melbourne, 3000",101137,3,TP-2021-568,144.966619,-37.81373805
Post May 16,X0011602,UNDER CONSTRUCTION,,"226-232 Flinders Lane, Melbourne, 3000",103965,9,TP-2021-549,144.9663938,-37.81640548
Post Oct 22,X0014013,UNDER CONSTRUCTION,,Victoria Harbour Precinct 938 Collins Street DOCKLANDS VIC 3008,106983,29,TPM-2018-14/A,144.9367403,-37.81977616
Post Oct 2022,X0015505,UNDER CONSTRUCTION,,"346-350 Macaulay Road, Kensington, 3031",615627,8,TPM-2019-30/B,144.9345432,-37.79422438
Pre May 16,X000479,COMPLETED,2006,191-201 Abbotsford Street NORTH MELBOURNE VIC 3051,100023,2,0,144.9450298,-37.80282184
Pre May 16,X000459,COMPLETED,2005,218-224 Abbotsford Street NORTH MELBOURNE VIC 3051,100119,3,0,144.9459475,-37.80204879
Pre May 16,X000573,COMPLETED,2013,56-62 Abbotsford Street WEST MELBOURNE VIC 3003,100144,4,0,144.9447186,-37.80679128
Pre May 16,X000563,COMPLETED,2014,1-9 Stawell Street WEST MELBOURNE VIC 3003,100441,3,0,144.9420962,-37.80607242
Pre May 16,X000997,COMPLETED,2007,229-235 Arden Street NORTH MELBOURNE VIC 3051,100556,2,0,144.9392856,-37.80037382
Pre May 16,X000394,COMPLETED,2002,16-18 Barkly Place CARLTON VIC 3053,100734,5,0,144.9614195,-37.80320056
Pre May 16,X000706,COMPLETED,2015,Melbourne Park 200 Batman Avenue MELBOURNE VIC 3004,100847,1,0,144.9790068,-37.82129682
Pre May 16,X000617,COMPLETED,2009,115-129 Batman Street WEST MELBOURNE VIC 3003,100853,4,0,144.9493029,-37.8116145
Pre May 16,X000229,COMPLETED,2010,10-14 Bennetts Lane MELBOURNE VIC 3000,101028,14,0,144.967921,-37.80905204
Pre May 16,X000362,COMPLETED,2006,223 Berkeley Street MELBOURNE VIC 3000,101049,8,0,144.9584344,-37.80027561
Pre May 16,X000106,COMPLETED,2007,Centrepoint Mall 283-297 Bourke Street MELBOURNE VIC 3000,101140,6,0,144.9652244,-37.81420896
Pre May 16,X000102,COMPLETED,2005,359-385 Bourke Street MELBOURNE VIC 3000,101146,42,0,144.9629215,-37.81492946
Pre May 16,X000095,COMPLETED,2005,RACV Building 483-501 Bourke Street MELBOURNE VIC 3000,101154,18,0,144.9595846,-37.81588557
Pre May 16,X000094,COMPLETED,2012,527-555 Bourke Street MELBOURNE VIC 3000,101155,8,0,144.9578145,-37.81636454
Pre May 16,X000425,COMPLETED,2012,51 Cardigan Street CARLTON VIC 3053,101578,2,0,144.9642508,-37.80552905
Pre May 16,X000490,COMPLETED,2014,76-78 Chapman Street NORTH MELBOURNE VIC 3051,101848,3,0,144.9478971,-37.79531399
Pre May 16,X000594,COMPLETED,2003,30-44 Chetwynd Street WEST MELBOURNE VIC 3003,101966,5,0,144.9523847,-37.80708219
Pre May 16,X000058,COMPLETED,2007,271-285 Collins Street MELBOURNE VIC 3000,102086,11,0,144.9649787,-37.81654626
Pre May 16,X000067,COMPLETED,2003,McPherson's Building 546-566 Collins Street MELBOURNE VIC 3000,102113,4,0,144.9558442,-37.81824449
Pre May 16,X000083,COMPLETED,2011,258-274 Collins Street MELBOURNE VIC 3000,102143,13,0,144.9648904,-37.81537999
Pre May 16,X001141,COMPLETED,2009,25 Enterprize Road WEST MELBOURNE VIC 3003,102179,2,0,144.9293874,-37.81616148
Pre May 16,X000116,COMPLETED,2011,20-26 Coromandel Place MELBOURNE VIC 3000,102197,16,0,144.9692548,-37.81302783
Pre May 16,X000516,COMPLETED,2012,La Trobe Close 13-39 Courtney Street NORTH MELBOURNE VIC 3051,102203,7,0,144.9535114,-37.8022174
Pre May 16,X000488,COMPLETED,2015,90-98 Curzon Street NORTH MELBOURNE VIC 3051,102370,3,0,144.9486062,-37.80180468
Pre May 16,X000946,COMPLETED,2003,143-151 Domain Road SOUTH YARRA VIC 3141,102499,3,0,144.9810994,-37.83420325
Pre May 16,X000604,COMPLETED,2005,104-128 Dudley Street WEST MELBOURNE VIC 3003,102960,10,0,144.9512713,-37.8092538
Pre May 16,X000624,COMPLETED,2012,442-452 Dynon Road WEST MELBOURNE VIC 3003,102997,2,0,144.9130748,-37.80083691
Pre May 16,X000643,COMPLETED,2004,457-469 Macaulay Road KENSINGTON VIC 3031,103033,4,0,144.9315297,-37.79485049
Pre May 16,X000079,COMPLETED,2007,97-103 Elizabeth Street MELBOURNE VIC 3000,103176,8,0,144.9634959,-37.81591904
Pre May 16,X000253,COMPLETED,2014,284-294 La Trobe Street MELBOURNE VIC 3000,103216,9,0,144.9608496,-37.81001419
Pre May 16,X000257,COMPLETED,2009,399-411 Elizabeth Street MELBOURNE VIC 3000,103218,5,0,144.9606404,-37.80955762
Pre May 16,X000405,COMPLETED,2009,536-542 Elizabeth Street MELBOURNE VIC 3000,103287,3,0,144.9596983,-37.80545065
Pre May 16,X000161,COMPLETED,2003,222-260 Elizabeth Street MELBOURNE VIC 3000,103312,21,0,144.9628825,-37.81270208
Pre May 16,X000556,COMPLETED,2011,North Melbourne Primary School 200-214 Errol Street NORTH MELBOURNE VIC 3051,103480,2,0,144.9515714,-37.79832324
Pre May 16,X000112,COMPLETED,2006,113-149 Exhibition Street MELBOURNE VIC 3000,103597,40,0,144.9701094,-37.81281423
Pre May 16,X000118,COMPLETED,2011,136-144 Exhibition Street MELBOURNE VIC 3000,103623,2,0,144.9711072,-37.81240242
Pre May 16,X000022,COMPLETED,2013,167-173 Flinders Lane MELBOURNE VIC 3000,103934,2,0,144.9688284,-37.81614284
Pre May 16,X001142,COMPLETED,2003,Flinders Wharf Apartments 40-66 Siddeley Street DOCKLANDS VIC 3008,103980,19,0,144.952474,-37.82287313
Pre May 16,X000010,COMPLETED,2005,546-548 Flinders Street MELBOURNE VIC 3000,103988,15,0,144.9561483,-37.82050212
Pre May 16,X000027,COMPLETED,2014,104-112 Flinders Street MELBOURNE VIC 3000,104026,12,0,144.9711552,-37.81600514
Pre May 16,X000036,COMPLETED,2012,96-98 Flinders Street MELBOURNE VIC 3000,104028,5,0,144.971475,-37.81590142
Pre May 16,X000677,COMPLETED,2003,1-13 Gatehouse Drive KENSINGTON VIC 3031,104200,8,0,144.9202883,-37.79121717
Pre May 16,X000960,COMPLETED,2015,Royal Melbourne Hospital 300-328 Grattan Street PARKVILLE VIC 3050,104437,0,0,144.9563397,-37.798639
Pre May 16,X000434,COMPLETED,2012,University of Melbourne 156-292 Grattan Street PARKVILLE VIC 3010,104468,0,0,144.9612401,-37.79675468
Pre May 16,X000435,COMPLETED,2014,University of Melbourne 156-292 Grattan Street PARKVILLE VIC 3010,104468,6,0,144.9612401,-37.79675468
Pre May 16,X000671,COMPLETED,2009,65-69 Hobsons Road KENSINGTON VIC 3031,104829,1,0,144.9169559,-37.79641837
Pre May 16,X000500,COMPLETED,2008,38-40 Howard Street NORTH MELBOURNE VIC 3051,105035,4,0,144.954187,-37.8043655
Pre May 16,X000497,COMPLETED,2003,22-26 Howard Street NORTH MELBOURNE VIC 3051,105037,4,0,144.9543084,-37.80471878
Pre May 16,X000571,COMPLETED,2010,86-90 Ireland Street WEST MELBOURNE VIC 3003,105092,3,0,144.9436122,-37.80656059
Pre May 16,X000572,COMPLETED,2014,26-32 Ireland Street WEST MELBOURNE VIC 3003,105101,4,0,144.945337,-37.8074106
Pre May 16,X000179,COMPLETED,2014,Hotel Sophia 277-287 King Street MELBOURNE VIC 3000,105318,3,0,144.9541999,-37.81367556
Pre May 16,X000183,COMPLETED,2002,262-274 King Street MELBOURNE VIC 3000,105376,18,0,144.9549299,-37.81372383
Pre May 16,X000518,COMPLETED,2011,15-33 Byron Street NORTH MELBOURNE VIC 3051,105630,4,0,144.9518409,-37.80198135
Pre May 16,X000521,COMPLETED,2015,68-82 Leveson Street NORTH MELBOURNE VIC 3051,105632,4,0,144.9516987,-37.80250243
Pre May 16,X000145,COMPLETED,2005,16-22 Liverpool Street MELBOURNE VIC 3000,105659,12,0,144.971548,-37.81105993
Pre May 16,X000174,COMPLETED,2003,Unilodge on Lonsdale 35-41 Lonsdale Street MELBOURNE VIC 3000,105670,22,0,144.9711505,-37.80996062
Pre May 16,X000198,COMPLETED,2004,QV Village 278-300 Swanston Street MELBOURNE VIC 3000,105749,48,0,144.965725,-37.81067869
Pre May 16,X000201,COMPLETED,2015,166-170 Lonsdale Street MELBOURNE VIC 3000,105751,15,0,144.9673695,-37.81056735
Pre May 16,X000069,COMPLETED,2014,601-611 Little Collins Street MELBOURNE VIC 3000,105945,8,0,144.9549044,-37.81802841
Pre May 16,X000261,COMPLETED,2014,22-32 Little La Trobe Street MELBOURNE VIC 3000,105989,18,0,144.9626725,-37.80917171
Pre May 16,X000185,COMPLETED,2010,551-555 Little Lonsdale Street MELBOURNE VIC 3000,106023,3,0,144.9555651,-37.81329565
Pre May 16,X000209,COMPLETED,2005,466-468 Little Lonsdale Street MELBOURNE VIC 3000,106031,5,0,144.955573,-37.81290461
Pre May 16,X000212,COMPLETED,2010,La Banque Apartments 380-386 Little Lonsdale Street MELBOURNE VIC 3000,106035,36,0,144.9581022,-37.81209822
Pre May 16,X000217,COMPLETED,2014,280-294 Little Lonsdale Street MELBOURNE VIC 3000,106044,36,0,144.9609411,-37.81127448
Pre May 16,X000234,COMPLETED,2004,158-162 Little Lonsdale Street MELBOURNE VIC 3000,106047,9,0,144.9671868,-37.80954011
Pre May 16,X000445,COMPLETED,2010,275-285 MacAulay Road NORTH MELBOURNE VIC 3051,106302,2,0,144.9376304,-37.79551317
Pre May 16,X000962,COMPLETED,2007,125-133 Manningham Street PARKVILLE VIC 3052,106414,1,0,144.9403735,-37.78384346
Pre May 16,X000051,COMPLETED,2005,54-60 Market Street MELBOURNE VIC 3000,106436,24,0,144.9608187,-37.81777732
Pre May 16,X000504,COMPLETED,2005,15-19 O'Connell Street NORTH MELBOURNE VIC 3051,106990,4,0,144.9578386,-37.80543275
Pre May 16,X000361,COMPLETED,2014,111-149 Nicholson Street CARLTON VIC 3053,107153,8,0,144.974439,-37.79730914
Pre May 16,X000597,COMPLETED,2008,39-47 Peel Street WEST MELBOURNE VIC 3003,107475,4,0,144.9554125,-37.80717882
Pre May 16,X000410,COMPLETED,2006,233-251 Queensberry Street CARLTON VIC 3053,107873,3,0,144.9606972,-37.80460826
Pre May 16,X000482,COMPLETED,2012,641-643 Queensberry Street NORTH MELBOURNE VIC 3051,107937,2,0,144.9460769,-37.8029926
Pre May 16,X000373,COMPLETED,2009,The Rathdowne 125-139 Rathdowne Street CARLTON VIC 3053,108157,5,0,144.969019,-37.80383243
Pre May 16,X000585,COMPLETED,2013,87-101 Roden Street WEST MELBOURNE VIC 3003,108344,6,0,144.9487784,-37.80750405
Pre May 16,X000956,COMPLETED,2015,197-259 Royal Parade PARKVILLE VIC 3052,108496,4,0,144.9581166,-37.78859493
Pre May 16,X000085,COMPLETED,2014,150-154 Collins Street MELBOURNE VIC 3000,108534,13,0,144.968176,-37.81417708
Pre May 16,X000239,COMPLETED,2015,302-324 Russell Street MELBOURNE VIC 3000,108566,55,0,144.9668052,-37.80930233
Pre May 16,X000062,COMPLETED,2013,42-44 Russell Street MELBOURNE VIC 3000,108592,5,0,144.9697387,-37.81556762
Pre May 16,X000711,COMPLETED,2006,Royce Hotel 375-385 St Kilda Road MELBOURNE VIC 3004,108617,2,0,144.9755401,-37.83508742
Pre May 16,X000713,COMPLETED,2009,393-401 St Kilda Road MELBOURNE VIC 3004,108621,7,0,144.9760291,-37.83570805
Pre May 16,X000765,COMPLETED,2010,505-507 St Kilda Road MELBOURNE VIC 3004,108643,21,0,144.9792364,-37.84370941
Pre May 16,X001003,COMPLETED,2015,285-313 Spencer Street DOCKLANDS VIC 3008,108847,15,0,144.9510174,-37.81380833
Pre May 16,X000591,COMPLETED,2014,162-174 Rosslyn Street WEST MELBOURNE VIC 3003,108857,6,0,144.9489077,-37.80925477
Pre May 16,X000586,COMPLETED,2015,135-137 Roden Street WEST MELBOURNE VIC 3003,108872,5,0,144.9475988,-37.80835644
Pre May 16,X000205,COMPLETED,2009,Atlantis Hotel & Tower 284-302 Spencer Street MELBOURNE VIC 3000,108960,36,0,144.9520545,-37.8137059
Pre May 16,X000204,COMPLETED,2005,Mondriane Tower 278-282 Spencer Street MELBOURNE VIC 3000,108961,26,0,144.9521671,-37.81395166
Pre May 16,X000039,COMPLETED,2009,Great Southern Hotel 44-64 Spencer Street MELBOURNE VIC 3000,108970,4,0,144.9547847,-37.81972836
Pre May 16,X000386,COMPLETED,2013,Tune Hotel 607-621 Swanston Street CARLTON VIC 3053,109323,9,0,144.9629645,-37.80404263
Pre May 16,X000330,COMPLETED,2010,842-844 Swanston Street CARLTON VIC 3053,109355,4,0,144.9649354,-37.79648227
Pre May 16,X000332,COMPLETED,2007,College Square on Swanston 768-804 Swanston Street CARLTON VIC 3053,109359,11,0,144.9651744,-37.79783266
Pre May 16,X000382,COMPLETED,2009,127-135 Pelham Street CARLTON VIC 3053,109366,13,0,144.9639452,-37.80276993
Pre May 16,X000629,COMPLETED,2014,50-60 Lloyd Street KENSINGTON VIC 3031,109449,2,0,144.9299594,-37.79958628
Pre May 16,X000632,COMPLETED,2010,50-60 Lloyd Street KENSINGTON VIC 3031,109449,2,0,144.9299594,-37.79958628
Pre May 16,X000686,COMPLETED,2005,Victoria Brewery Site 412-442 Victoria Parade EAST MELBOURNE VIC 3002,109643,7,0,144.9856247,-37.81004691
Pre May 16,X000698,COMPLETED,2010,68-90 Victoria Parade EAST MELBOURNE VIC 3002,109669,3,0,144.9742889,-37.80856345
Pre May 16,X000317,COMPLETED,2011,51-57 Victoria Street MELBOURNE VIC 3000,109681,8,0,144.9606307,-37.80670752
Pre May 16,X000498,COMPLETED,2002,328-350 Victoria Street NORTH MELBOURNE VIC 3051,109825,5,0,144.9547634,-37.80542601
Pre May 16,X000549,COMPLETED,2005,11-21A Villiers Street NORTH MELBOURNE VIC 3051,109859,3,0,144.9522644,-37.79962041
Pre May 16,X001170,COMPLETED,2015,33-37 Walsh Street WEST MELBOURNE VIC 3003,109942,5,0,144.9533881,-37.80842803
Pre May 16,X000155,COMPLETED,2014,189-203 William Street MELBOURNE VIC 3000,110099,24,0,144.9570652,-37.81464582
Pre May 16,X000248,COMPLETED,2014,Art on the Park Apartments 330-352 William Street MELBOURNE VIC 3000,110140,36,0,144.9565752,-37.81124627
Pre May 16,X000537,COMPLETED,2005,30-34 Wreckyn Street NORTH MELBOURNE VIC 3051,110260,6,0,144.9545415,-37.80053674
Pre May 16,X000934,COMPLETED,2002,Gallery Tower 27-33 City Road SOUTHBANK VIC 3006,110350,19,0,144.9668593,-37.82173393
Pre May 16,X000928,COMPLETED,2015,WRAP Residences 133-139 City Road SOUTHBANK VIC 3006,110362,41,0,144.9635826,-37.82348398
Pre May 16,X000918,COMPLETED,2009,Southbank One 174-184 City Road SOUTHBANK VIC 3006,110385,37,0,144.9619163,-37.8238378
Pre May 16,X000943,COMPLETED,2015,276-282 City Road SOUTHBANK VIC 3006,110394,23,0,144.9591382,-37.82638529
Pre May 16,X000937,COMPLETED,2010,Triptych Apartments 8-10 Kavanagh Street SOUTHBANK VIC 3006,110413,30,0,144.9665796,-37.82248629
Pre May 16,X000761,COMPLETED,2013,The Guilfoyle 35-47 Coventry Street SOUTHBANK VIC 3006,110456,21,0,144.9693921,-37.82956556
Pre May 16,X000718,COMPLETED,2013,Tiara Apartments 46-50 Haig Street SOUTHBANK VIC 3006,110474,32,0,144.9569458,-37.8268301
Pre May 16,X000907,COMPLETED,2009,Melbourne Convention Exhibition Centre 2-26 Clarendon Street SOUTH WHARF VIC 3006,110484,1,0,144.9523045,-37.82538979
Pre May 16,X000908,COMPLETED,2011,Melbourne Convention Exhibition Centre 2-26 Clarendon Street SOUTH WHARF VIC 3006,110484,1,0,144.9523045,-37.82538979
Pre May 16,X000910,COMPLETED,2009,Melbourne Convention Exhibition Centre 2-26 Clarendon Street SOUTH WHARF VIC 3006,110484,20,0,144.9523045,-37.82538979
Pre May 16,X000880,COMPLETED,2009,344-370 Lorimer Street PORT MELBOURNE VIC 3207,110504,3,0,144.9101632,-37.82374211
Pre May 16,X000842,COMPLETED,2008,704-744 Lorimer Street PORT MELBOURNE VIC 3207,110516,2,0,144.9254499,-37.82167499
Pre May 16,X000909,COMPLETED,2011,1-27 South Wharf Promenade SOUTH WHARF VIC 3006,110537,1,0,144.9534093,-37.82429078
Pre May 16,X000914,COMPLETED,2010,1-27 South Wharf Promenade SOUTH WHARF VIC 3006,110537,1,0,144.9534093,-37.82429078
Pre May 16,X000836,COMPLETED,2009,49-89 Turner Street PORT MELBOURNE VIC 3207,110551,3,0,144.9253878,-37.82302894
Pre May 16,X000837,COMPLETED,2003,49-89 Turner Street PORT MELBOURNE VIC 3207,110551,3,0,144.9253878,-37.82302894
Pre May 16,X000839,COMPLETED,2007,49-89 Turner Street PORT MELBOURNE VIC 3207,110551,3,0,144.9253878,-37.82302894
Pre May 16,X000846,COMPLETED,2010,173-187 Salmon Street PORT MELBOURNE VIC 3207,110589,1,0,144.9208695,-37.82604925
Pre May 16,X000850,COMPLETED,2005,189-219 Salmon Street PORT MELBOURNE VIC 3207,110591,4,0,144.9204815,-37.8247706
Pre May 16,X000843,COMPLETED,2006,Portside Business Park 247-267 Salmon Street PORT MELBOURNE VIC 3207,110597,1,0,144.9188427,-37.82228361
Pre May 16,X000845,COMPLETED,2013,Portside Business Park 247-267 Salmon Street PORT MELBOURNE VIC 3207,110597,2,0,144.9188427,-37.82228361
Pre May 16,X000744,COMPLETED,2013,152-166 Sturt Street SOUTHBANK VIC 3006,110622,26,0,144.9660716,-37.82539897
Pre May 16,X000737,COMPLETED,2002,21-29 Moray Street SOUTHBANK VIC 3006,110631,3,0,144.9611301,-37.82729094
Pre May 16,X000053,COMPLETED,2005,The Mark On Collins Apartments 319-325 Collins Street MELBOURNE VIC 3000,110763,13,0,144.9636649,-37.81693152
Pre May 16,X000056,COMPLETED,2014,233-239 Collins Street MELBOURNE VIC 3000,110857,2,0,144.9661041,-37.81599654
Pre May 16,X000430,COMPLETED,2008,16-26 Orr Street CARLTON VIC 3053,111078,9,0,144.9654006,-37.80634035
Pre May 16,X000109,COMPLETED,2010,UB1 Little Hero Apartments 16-30 Russell Place MELBOURNE VIC 3000,111394,8,0,144.9674376,-37.81354622
Pre May 16,X000259,COMPLETED,2010,A'Beckett Tower 19-37 A'Beckett Street MELBOURNE VIC 3000,500323,34,0,144.9626102,-37.80894115
Pre May 16,X000370,COMPLETED,2003,Uropa Apartments 604-640 Swanston Street CARLTON VIC 3053,538825,12,0,144.9643355,-37.80194791
Pre May 16,X000524,COMPLETED,2014,79-89 Leveson Street NORTH MELBOURNE VIC 3051,556344,4,0,144.9509233,-37.80239447
Pre May 16,X000188,COMPLETED,2002,Victorian County Court 240-278 William Street MELBOURNE VIC 3000,559300,11,0,144.9576684,-37.81301404
Pre May 16,X000805,COMPLETED,2003,58-70 Lorimer Street DOCKLANDS VIC 3008,560266,21,0,144.9464361,-37.82485726
Pre May 16,X001122,COMPLETED,2015,Ron Barassi Senior Park 492-534 Docklands Drive DOCKLANDS VIC 3008,561107,1,0,144.9346538,-37.81655265
Pre May 16,X000406,COMPLETED,2003,Bouverie Close Apartments 1-19 Bouverie Street CARLTON VIC 3053,563935,10,0,144.9610904,-37.80609301
Pre May 16,X000407,COMPLETED,2010,194-208 Victoria Street CARLTON VIC 3053,563936,7,0,144.9606615,-37.80608438
Pre May 16,X000379,COMPLETED,2007,114-118 Cardigan Street CARLTON VIC 3053,565100,3,0,144.9651925,-37.80392907
Pre May 16,X000277,COMPLETED,2015,34-36 Jeffcott Street WEST MELBOURNE VIC 3003,569276,3,0,144.9521597,-37.81142131
Pre May 16,X000895,COMPLETED,2002,64-78 City Road SOUTHBANK VIC 3006,570659,10,0,144.9651292,-37.8217528
Pre May 16,X000896,COMPLETED,2002,Travelodge 9 Riverside Quay SOUTHBANK VIC 3006,570811,11,0,144.9652369,-37.82133225
Pre May 16,X000882,COMPLETED,2015,42-50 Wirraway Drive PORT MELBOURNE VIC 3207,570826,2,0,144.908192,-37.82651064
Pre May 16,X000333,COMPLETED,2003,740-750 Swanston Street CARLTON VIC 3053,573290,13,0,144.964765,-37.79900074
Pre May 16,X000508,COMPLETED,2008,9-13 O'Connell Street NORTH MELBOURNE VIC 3051,573298,6,0,144.9579056,-37.8056038
Pre May 16,X000005,COMPLETED,2002,Federation Square 2-20 Swanston Street MELBOURNE VIC 3000,573333,4,0,144.9698244,-37.81778894
Pre May 16,X001023,COMPLETED,2012,Lacrosse Docklands 673-683 La Trobe Street DOCKLANDS VIC 3008,573400,20,0,144.9474887,-37.81489076
Pre May 16,X001063,COMPLETED,2004,National@Docklands 788-812 Bourke Street DOCKLANDS VIC 3008,573414,10,0,144.9450783,-37.81885013
Pre May 16,X000276,COMPLETED,2012,33-43 Batman Street WEST MELBOURNE VIC 3003,573825,14,0,144.9519003,-37.81101518
Pre May 16,X001029,COMPLETED,2004,Watergate Apartments 2-24 Waterview Walk DOCKLANDS VIC 3008,576023,15,0,144.9478097,-37.8191795
Pre May 16,X001030,COMPLETED,2004,Watergate Apartments 2-24 Waterview Walk DOCKLANDS VIC 3008,576023,6,0,144.9478097,-37.8191795
Pre May 16,X000926,COMPLETED,2002,Sentinel 70-92 Kavanagh Street SOUTHBANK VIC 3006,576748,34,0,144.9630402,-37.82467375
Pre May 16,X000815,COMPLETED,2002,72-82 Lorimer Street DOCKLANDS VIC 3008,577280,30,0,144.9449701,-37.82470899
Pre May 16,X001043,COMPLETED,2004,694-704 Collins Street DOCKLANDS VIC 3008,578095,18,0,144.9508541,-37.81950557
Pre May 16,X001044,COMPLETED,2010,715-727 Bourke Street DOCKLANDS VIC 3008,578096,18,0,144.9502449,-37.81866156
Pre May 16,X000817,COMPLETED,2005,"90 Lorimer Street, DOCKLANDS VIC 3008",665148,30,0,144.9431953,-37.82430056
Pre May 16,X000203,COMPLETED,2006,32-54 Lonsdale Street MELBOURNE VIC 3000,580091,35,0,144.9707289,-37.80919616
Pre May 16,X000639,COMPLETED,2006,1-3 Bruce Street KENSINGTON VIC 3031,581558,2,0,144.9333662,-37.79807269
Pre May 16,X000696,COMPLETED,2004,9-19 Eades Street EAST MELBOURNE VIC 3002,586152,10,0,144.980742,-37.80963588
Pre May 16,X001013,COMPLETED,2004,The Innovation Building 192 Harbour Esplanade DOCKLANDS VIC 3008,588806,5,0,144.9454003,-37.81396622
Pre May 16,X000873,COMPLETED,2010,278-284 Lorimer Street PORT MELBOURNE VIC 3207,589452,2,0,144.9058038,-37.82589323
Pre May 16,X000867,COMPLETED,2009,1-7 Wharf Road PORT MELBOURNE VIC 3207,589465,2,0,144.9065339,-37.82857978
Pre May 16,X000653,COMPLETED,2011,42 Derby Street KENSINGTON VIC 3031,589552,2,0,144.9273078,-37.79637578
Pre May 16,X000660,COMPLETED,2004,64-76 Henry Street KENSINGTON VIC 3031,589626,3,0,144.9259484,-37.79577971
Pre May 16,X000657,COMPLETED,2004,58-62 Henry Street KENSINGTON VIC 3031,589648,3,0,144.926202,-37.79563228
Pre May 16,X000526,COMPLETED,2007,23 Arden Street NORTH MELBOURNE VIC 3051,592679,3,0,144.9512149,-37.80127951
Pre May 16,X000397,COMPLETED,2006,42-50 Barry Street CARLTON VIC 3053,592857,7,0,144.960013,-37.80295732
Pre May 16,X000649,COMPLETED,2004,37 Kensington Road KENSINGTON VIC 3031,593664,3,0,144.926214,-37.79519252
Pre May 16,X001133,COMPLETED,2009,Costco 331-381 Footscray Road DOCKLANDS VIC 3008,593738,2,0,144.9372459,-37.81076441
Pre May 16,X000887,COMPLETED,2012,70-78 Wirraway Drive PORT MELBOURNE VIC 3207,593751,2,0,144.909116,-37.82470036
Pre May 16,X000885,COMPLETED,2011,64-68 Wirraway Drive PORT MELBOURNE VIC 3207,593752,2,0,144.908816,-37.82497057
Pre May 16,X000877,COMPLETED,2007,316-320 Lorimer Street PORT MELBOURNE VIC 3207,593755,2,0,144.908179,-37.82434265
Pre May 16,X000384,COMPLETED,2005,522-536 Swanston Street CARLTON VIC 3053,594107,10,0,144.9636398,-37.80430718
Pre May 16,X000669,COMPLETED,2006,84-102 Altona Street KENSINGTON VIC 3031,597180,4,0,144.9256686,-37.79662813
Pre May 16,X001059,COMPLETED,2006,Kangan TAFE 2-48 Harbour Esplanade DOCKLANDS VIC 3008,602858,3,0,144.9486115,-37.82202187
Pre May 16,X001060,COMPLETED,2011,Kangan TAFE 2-48 Harbour Esplanade DOCKLANDS VIC 3008,602858,4,0,144.9486115,-37.82202187
Pre May 16,X000042,COMPLETED,2005,607-623 Collins Street MELBOURNE VIC 3000,606461,6,0,144.9546898,-37.8192929
Pre May 16,X000972,COMPLETED,2006,2 Galada Avenue PARKVILLE VIC 3052,606553,2,0,144.9416584,-37.78179377
Pre May 16,X000480,COMPLETED,2006,187 Abbotsford Street NORTH MELBOURNE VIC 3051,608171,3,0,144.9451656,-37.80304719
Pre May 16,X000464,COMPLETED,2009,Dryburgh Corporate Suites 204-210 Dryburgh Street NORTH MELBOURNE VIC 3051,608207,4,0,144.9440644,-37.80156916
Pre May 16,X000984,COMPLETED,2006,181 Oak Street PARKVILLE VIC 3052,608377,2,0,144.9424779,-37.77749902
Pre May 16,X000970,COMPLETED,2006,23 Strickland Road PARKVILLE VIC 3052,608403,2,0,144.941665,-37.77739398
Pre May 16,X000976,COMPLETED,2006,39 Strickland Road PARKVILLE VIC 3052,608634,2,0,144.9409554,-37.77699195
Pre May 16,X001050,COMPLETED,2008,Lion 737-743 Bourke Street DOCKLANDS VIC 3008,609487,8,0,144.9490628,-37.81920605
Pre May 16,X001048,COMPLETED,2010,731-735 Bourke Street DOCKLANDS VIC 3008,609488,4,0,144.9498282,-37.81922001
Pre May 16,X000966,COMPLETED,2006,110-116 Parkville Avenue PARKVILLE VIC 3052,610491,4,0,144.9425298,-37.77632963
Pre May 16,X000969,COMPLETED,2007,169-173 Oak Street PARKVILLE VIC 3052,610493,3,0,144.9424916,-37.77782876
Pre May 16,X001065,COMPLETED,2009,ANZ 791-833 Collins Street DOCKLANDS VIC 3008,611367,10,0,144.9456372,-37.82204736
Pre May 16,X000822,COMPLETED,2012,826-846 Lorimer Street PORT MELBOURNE VIC 3207,611376,3,0,144.9323097,-37.82260306
Pre May 16,X000002,COMPLETED,2009,545-557 Flinders Street MELBOURNE VIC 3000,611394,16,0,144.9565145,-37.82097941
Pre May 16,X001010,COMPLETED,2007,1010 La Trobe Street DOCKLANDS VIC 3008,611576,9,0,144.9453778,-37.81455321
Pre May 16,X000666,COMPLETED,2008,76-78 Altona Street KENSINGTON VIC 3031,612647,3,0,144.9259483,-37.7971386
Pre May 16,X001061,COMPLETED,2009,The Montage 1 Encounter Way DOCKLANDS VIC 3008,613251,12,0,144.9457841,-37.82038364
Pre May 16,X000883,COMPLETED,2009,51-65 Wharf Road PORT MELBOURNE VIC 3207,613949,2,0,144.9088843,-37.82707119
Pre May 16,X001156,COMPLETED,2014,98-108 Rankins Road KENSINGTON VIC 3031,614788,3,0,144.9310973,-37.79223338
Pre May 16,X001160,COMPLETED,2011,11 Smith Street KENSINGTON VIC 3031,614827,3,0,144.9318382,-37.7912228
Pre May 16,X001155,COMPLETED,2006,61-89 Melrose Street NORTH MELBOURNE VIC 3051,617538,3,0,144.9415845,-37.79356328
Pre May 16,X001150,COMPLETED,2009,27-31 Racecourse Road NORTH MELBOURNE VIC 3051,617689,2,0,144.9409608,-37.78974281
Pre May 16,X001162,COMPLETED,2008,25-77 Stubbs Street KENSINGTON VIC 3031,617955,2,0,144.9359191,-37.79107102
Pre May 16,X001136,COMPLETED,2010,380-394 Docklands Drive DOCKLANDS VIC 3008,618854,10,0,144.9411967,-37.81308483
Pre May 16,X000413,COMPLETED,2013,136-154 Victoria Street CARLTON VIC 3053,619111,9,0,144.962512,-37.80619518
Pre May 16,X000703,COMPLETED,2008,Treasury Apartments 33 Cliveden Close EAST MELBOURNE VIC 3002,619141,3,0,144.9767049,-37.81712324
Pre May 16,X001145,COMPLETED,2009,177-187 Boundary Road NORTH MELBOURNE VIC 3051,619509,6,0,144.9395663,-37.78864444
Pre May 16,X001146,COMPLETED,2011,177-187 Boundary Road NORTH MELBOURNE VIC 3051,619509,8,0,144.9395663,-37.78864444
Pre May 16,X000281,COMPLETED,2012,Pegasus Apartment Hotel 206-216 A'Beckett Street MELBOURNE VIC 3000,621413,25,0,144.9570807,-37.81005923
Pre May 16,X001070,COMPLETED,2013,Lifestyle Working 818-838 Collins Street DOCKLANDS VIC 3008,622439,5,0,144.9450198,-37.82101183
Pre May 16,X000665,COMPLETED,2010,72-84 Ormond Street KENSINGTON VIC 3031,624168,4,0,144.9281597,-37.79758981
Pre May 16,X001154,COMPLETED,2011,32A Mark Street NORTH MELBOURNE VIC 3051,624189,3,0,144.9406684,-37.79368238
Pre May 16,X001106,COMPLETED,2011,2-28 Leven Avenue DOCKLANDS VIC 3008,626355,3,0,144.9374274,-37.81543651
Pre May 16,X000349,COMPLETED,2011,518-538 Drummond Street CARLTON VIC 3053,627567,7,0,144.9701474,-37.79297916
Pre May 16,X001109,COMPLETED,2014,231-245 Harbour Esplanade DOCKLANDS VIC 3008,627659,33,0,144.943,-37.81356166
Pre May 16,X000447,COMPLETED,2012,34-40 Straker Street NORTH MELBOURNE VIC 3051,628744,2,0,144.9374758,-37.79655262
Pre May 16,X000646,COMPLETED,2011,16-40 Derby Street KENSINGTON VIC 3031,631886,3,0,144.9268827,-37.79588299
Pre May 16,X000647,COMPLETED,2012,28-38 Clifford Terrace KENSINGTON VIC 3031,632507,4,0,144.9265766,-37.7959731
Pre May 16,X000348,COMPLETED,2014,515-545 Rathdowne Street CARLTON VIC 3053,632536,0,0,144.9709208,-37.79299502
Pre May 16,X000772,COMPLETED,2014,118-122 Lorimer Street DOCKLANDS VIC 3008,632854,1,0,144.9406394,-37.8230168
Pre May 16,X001103,COMPLETED,2011,136 Newquay Promenade DOCKLANDS VIC 3008,632894,3,0,144.9375459,-37.81635193
Pre May 16,X000127,COMPLETED,2008,CBW Melbourne 147-185 William Street MELBOURNE VIC 3000,636824,27,0,144.9573905,-37.81532021
Pre May 16,X000128,COMPLETED,2009,CBW Melbourne 147-185 William Street MELBOURNE VIC 3000,636824,19,0,144.9573905,-37.81532021
Pre May 16,X000812,COMPLETED,2012,66 South Wharf Drive DOCKLANDS VIC 3008,637395,3,0,144.9370905,-37.8221519
Pre May 16,X000804,COMPLETED,2012,57 South Wharf Drive DOCKLANDS VIC 3008,637399,3,0,144.937097,-37.82253666
Pre May 16,X000807,COMPLETED,2012,61 South Wharf Drive DOCKLANDS VIC 3008,637401,3,0,144.9369463,-37.82250245
Pre May 16,X000809,COMPLETED,2012,63 South Wharf Drive DOCKLANDS VIC 3008,637402,3,0,144.9368709,-37.82248535
Pre May 16,X000816,COMPLETED,2012,8 Riggers Place DOCKLANDS VIC 3008,637404,3,0,144.9367182,-37.82245429
Pre May 16,X000782,COMPLETED,2012,152 Lorimer Street DOCKLANDS VIC 3008,637408,3,0,144.9369691,-37.82275878
Pre May 16,X000781,COMPLETED,2012,150 Lorimer Street DOCKLANDS VIC 3008,637409,3,0,144.9370762,-37.8227831
Pre May 16,X000792,COMPLETED,2012,22 South Wharf Drive DOCKLANDS VIC 3008,637414,3,0,144.9400142,-37.82281555
Pre May 16,X000800,COMPLETED,2012,30 South Wharf Drive DOCKLANDS VIC 3008,637418,3,0,144.939572,-37.82271517
Pre May 16,X000791,COMPLETED,2012,21 South Wharf Drive DOCKLANDS VIC 3008,637419,3,0,144.9398742,-37.82314222
Pre May 16,X000797,COMPLETED,2012,27 South Wharf Drive DOCKLANDS VIC 3008,637422,3,0,144.9396463,-37.82309049
Pre May 16,X000799,COMPLETED,2012,29 South Wharf Drive DOCKLANDS VIC 3008,637423,3,0,144.9395709,-37.82307338
Pre May 16,X000802,COMPLETED,2012,33 South Wharf Drive DOCKLANDS VIC 3008,637425,3,0,144.9394183,-37.82303875
Pre May 16,X000777,COMPLETED,2012,130 Lorimer Street DOCKLANDS VIC 3008,637427,3,0,144.9394639,-37.82327635
Pre May 16,X000774,COMPLETED,2012,124 Lorimer Street DOCKLANDS VIC 3008,637430,3,0,144.9397842,-37.82334904
Pre May 16,X000860,COMPLETED,2015,28-30 Cook Street PORT MELBOURNE VIC 3207,640578,0,0,144.9151717,-37.83138054
Pre May 16,X000857,COMPLETED,2014,20-22 Cook Street PORT MELBOURNE VIC 3207,640582,3,0,144.9144411,-37.83185425
Pre May 16,X000856,COMPLETED,2015,12-18 Cook Street PORT MELBOURNE VIC 3207,640583,3,0,144.9139679,-37.83210423
Pre May 16,X000422,COMPLETED,2014,539-555 Swanston Street CARLTON VIC 3053,644815,32,0,144.9625206,-37.80570233
Post May 16,X001207,COMPLETED,2016,377-391 Cardigan Street CARLTON VIC 3053,101613,5,TP-2014-1011,144.9657543,-37.7972554
Post May 16,X000358,COMPLETED,2015,138-150 Rathdowne Street CARLTON VIC 3053,108239,3,TP-2013-77,144.9710396,-37.79604573
Post May 16,X000612,COMPLETED,2016,DUO Apartments 423-435 Spencer Street WEST MELBOURNE VIC 3003,108850,17,TP-2011-479/A,144.9498933,-37.81054998
Post May 16,X000466,COMPLETED,2016,228-232 Dryburgh Street NORTH MELBOURNE VIC 3051,601883,4,TP-2012-234,144.9441395,-37.80115491
Post May 16,X000865,COMPLETED,2016,46-62 Cook Street PORT MELBOURNE VIC 3207,640573,1,TP-2011-281/B,144.9171036,-37.82989682
Post May 16,X000938,COMPLETED,2016,248-254 City Road SOUTHBANK VIC 3006,110387,32,TP-2009-724/B,144.9596337,-37.82567805
Post May 16,X001522,COMPLETED,2016,65-79 Galada Avenue PARKVILLE VIC 3052,612700,5,TPM-2012-39,144.9391073,-37.77956819
Post May 16,X000515,COMPLETED,2016,366-392 Queensberry Street NORTH MELBOURNE VIC 3051,102201,4,TP-2012-315/A,144.9550184,-37.80326652
Post May 16,X001517,COMPLETED,2016,366-392 Queensberry Street NORTH MELBOURNE VIC 3051,102201,4,TP-2012-315/A,144.9550184,-37.80326652
Post May 16,X001518,COMPLETED,2016,366-392 Queensberry Street NORTH MELBOURNE VIC 3051,102201,4,TP-2012-315/A,144.9550184,-37.80326652
Post May 16,X000008,COMPLETED,2016,517-537 Flinders Lane MELBOURNE VIC 3000,103957,3,TP-2014-564/A,144.9566569,-37.81987147
Post May 16,X000108,COMPLETED,2016,QT Melbourne 131-141 Russell Street MELBOURNE VIC 3000,108537,12,TP-2012-1039,144.9678367,-37.81342914
Post May 16,X001521,COMPLETED,2016,864-892 Collins Street DOCKLANDS VIC 3008,632511,16,TPD-2014-20,144.9423243,-37.82058708
Post May 16,X000735,COMPLETED,2016,Platinum Apartments 43-47 Clarke Street SOUTHBANK VIC 3006,110372,53,TPM-2009-57,144.9595233,-37.82684001
Post May 16,X000086,COMPLETED,2017,109-119 Little Collins Street MELBOURNE VIC 3000,105914,0,TP-2012-780/A,144.9700268,-37.81354671
Post May 16,X000562,COMPLETED,2017,14-20 Anderson Street WEST MELBOURNE VIC 3003,100437,7,TP-2012-19/C,144.9421667,-37.80568227
Post May 16,X000607,COMPLETED,2017,130-154 Dudley Street WEST MELBOURNE VIC 3003,102958,9,TPM-2011-40/A,144.9506136,-37.80952166
Post May 16,X000402,COMPLETED,2017,149-155 Berkeley Street MELBOURNE VIC 3000,103262,20,TP-2014-319/A,144.9582495,-37.80219324
Post May 16,X000224,COMPLETED,2017,La Trobe Tower 323-331 La Trobe Street MELBOURNE VIC 3000,105453,42,TP-2013-493,144.9597939,-37.81102566
Post May 16,X000270,COMPLETED,2017,36-40 La Trobe Street MELBOURNE VIC 3000,105496,38,TP-2011-471/A,144.9675752,-37.8081292
Post May 16,X000153,COMPLETED,2017,617-639 Lonsdale Street MELBOURNE VIC 3000,105718,54,TPM-2009-47,144.9536247,-37.81542152
Post May 16,X001520,COMPLETED,2017,889-897 Collins Street DOCKLANDS VIC 3008,667601,24,TPM-2014-50,144.9418979,-37.82120905
Post May 16,X000066,COMPLETED,2017,35-47 Spring Street MELBOURNE VIC 3000,108978,45,TPM-2011-35,144.9739482,-37.81419757
Post May 16,X000609,COMPLETED,2017,171-175 Rosslyn Street WEST MELBOURNE VIC 3003,528898,5,TP-2013-12/A,144.9490732,-37.80971674
Post May 16,X001179,COMPLETED,2017,481-495 Rathdowne Street CARLTON VIC 3053,632639,9,TPM-2014-49,144.9706899,-37.79418146
Post May 16,X001034,COMPLETED,2017,17-27 Village Street DOCKLANDS VIC 3008,636574,37,TPD-2013-18,144.950436,-37.82110552
Post May 16,X000739,COMPLETED,2017,42-48 Balston Street SOUTHBANK VIC 3006,559332,37,TPM-2012-3,144.9624854,-37.82673378
Post May 16,X001505,COMPLETED,2017,869-883 Collins Street DOCKLANDS VIC 3008,667600,24,TPM-2014-50,144.9429799,-37.82148719
Post May 16,X1111112,COMPLETED,2014,515-545 Rathdowne Street CARLTON VIC 3053,632536,0,TPM-2012-40,144.9709208,-37.79299502
Post May 16,X000423,COMPLETED,2017,139-155 Queensberry Street CARLTON VIC 3053,107867,15,TP-2012-1044,144.9639247,-37.8049342
Post May 16,X000764,COMPLETED,2017,497-503 St Kilda Road MELBOURNE VIC 3004,108642,20,TPM-2013-23,144.9790766,-37.84331753
Post May 16,X001515,COMPLETED,2017,"275 Abbotsford Street, NORTH MELBOURNE, 3051",100483,5,TP-2014-1124,144.9454485,-37.80089104
Post May 16,X000297,COMPLETED,2017,442-450 Elizabeth Street MELBOURNE VIC 3000,103301,70,TPM-2011-42,144.9608587,-37.80830802
Post May 16,X000443,COMPLETED,2017,243-251 Flemington Road NORTH MELBOURNE VIC 3051,103859,4,TP-2011-652/B,144.9467092,-37.79355906
Post May 16,X001189,COMPLETED,2017,91 Geographe Street DOCKLANDS VIC 3008,678346,4,TP-2014-1115,144.945159,-37.81982955
Post May 16,X000925,COMPLETED,2017,1-13 Balston Street SOUTHBANK VIC 3006,608820,47,TPM-2007-21/B,144.9616413,-37.82517164
Post May 16,X000264,COMPLETED,2017,75-89 A'Beckett Street MELBOURNE VIC 3000,103304,55,TPM-2013-16,144.9613345,-37.80933725
Post May 16,X000419,COMPLETED,2017,28-44 Bouverie Street CARLTON VIC 3053,661088,20,TPM-2013-20,144.9619847,-37.80566315
Post May 16,X001524,COMPLETED,2017,51-55 Galada Avenue PARKVILLE VIC 3052,684098,13,TPM-2015-9,144.9395934,-37.78035557
Post May 16,X000033,COMPLETED,2016,10-20 Oliver Lane MELBOURNE VIC 3000,107003,3,TP-2014-202,144.9702935,-37.81614879
Post May 16,X001556,COMPLETED,2017,RMIT 17-25 Lygon Street CARLTON VIC 3053,106080,2,TP-2016-592,144.9656692,-37.80637338
Post May 16,X000687,COMPLETED,2018,126-158 Clarendon Street EAST MELBOURNE VIC 3002,102007,2,TP-2014-491,144.9841024,-37.812282
Post May 16,X000509,COMPLETED,2018,529-533 Elizabeth Street MELBOURNE VIC 3000,103236,10,TP-2014-274,144.9586111,-37.80566944
Post May 16,X001174,COMPLETED,2018,241-247 Dryburgh Street NORTH MELBOURNE VIC 3051,102826,5,TP-2014-1054,144.943494,-37.80068572
Post May 16,X001578,COMPLETED,2018,43 Village Street DOCKLANDS VIC 3008,646789,1,TP-2012-787/C,144.9499937,-37.82027313
Post May 16,X000567,COMPLETED,2018,109-129 Ireland Street WEST MELBOURNE VIC 3003,105083,10,TP-2014-843/A,144.9423605,-37.80667984
Post May 16,X001233,COMPLETED,2018,229-241 Franklin Street MELBOURNE VIC 3000,104088,24,TP-2015-580,144.9571019,-37.80970685
Post May 16,X001181,COMPLETED,2018,157-159 Domain Road SOUTH YARRA VIC 3141,102502,4,TP-2014-1084,144.9814521,-37.83428465
Post May 16,X001243,COMPLETED,2018,359-373 Collins Street MELBOURNE VIC 3000,102092,1,TP-2015-800,144.9624424,-37.81728405
Post May 16,X000582,COMPLETED,2018,621-643 King Street WEST MELBOURNE VIC 3003,109722,6,TP-2014-200,144.9481264,-37.80554699
Post May 16,X0001806,COMPLETED,2018,110-114 Cade Way PARKVILLE VIC 3052,653560,13,TPM-2011-27,144.9390243,-37.77894217
Post May 16,X0001600,COMPLETED,2018,71-113 Hobsons Road KENSINGTON VIC 3031,104830,7,TP-2013-87/B,144.9164558,-37.79617684
Post May 16,X001275,COMPLETED,2018,80 Chapman Street NORTH MELBOURNE VIC 3051,101847,3,TP-2015-524,144.9477744,-37.79521765
Post May 16,X000274,COMPLETED,2018,9-23 MacKenzie Street MELBOURNE VIC 3000,106367,37,TPM-2014-11,144.9673949,-37.80768169
Post May 16,X000543,COMPLETED,2018,46 Villiers Street NORTH MELBOURNE VIC 3051,109862,8,TP-2010-331,144.9534594,-37.79954565
Post May 16,X001339,COMPLETED,2018,120 Pearl River Road DOCKLANDS VIC 3008,620301,3,TP-2015-1090,144.9365878,-37.81185827
Post May 16,X001552,COMPLETED,2019,1-3 Flemington Road NORTH MELBOURNE VIC 3051,103809,22,TP-2016-425,144.9563476,-37.80135185
Post May 16,X001112,COMPLETED,2019,387-395 Docklands Drive DOCKLANDS VIC 3008,601814,18,TPD-2012-41/A,144.9408371,-37.81401982
Post May 16,X0004403,COMPLETED,2019,206-218 Bourke Street MELBOURNE VIC 3000,101202,0,TP-2018-473,144.9668682,-37.81267467
Post May 16,X0001653,COMPLETED,2019,1-23 Millswyn Street SOUTH YARRA VIC 3141,106621,0,TP-2012-893/B,144.9797998,-37.83724239
Post May 16,X001242,COMPLETED,2019,535-541 Royal Parade PARKVILLE VIC 3052,108522,3,TP-2015-577,144.9591657,-37.77940246
Post May 16,X000456,COMPLETED,2019,101-133 Canning Street NORTH MELBOURNE VIC 3051,106292,16,TPM-2011-18/B,144.9406804,-37.79624077
Post May 16,X001514,COMPLETED,2019,101-133 Canning Street NORTH MELBOURNE VIC 3051,106292,10,TPM-2011-18/B,144.9406804,-37.79624077
Post May 16,X000693,COMPLETED,2019,262-304 Albert Street EAST MELBOURNE VIC 3002,109653,17,TPM-2013-17,144.9817267,-37.80962534
Post May 16,X001550,COMPLETED,2019,33-43 Sturt Street SOUTHBANK VIC 3006,620273,10,TP-2016-665,144.9674047,-37.8245458
Post May 16,X0002213,COMPLETED,2019,Ridley College 168-180 The Avenue PARKVILLE VIC 3052,100617,3,TP-2017-520,144.9577256,-37.78363441
Post May 16,X001533,COMPLETED,2019,35-41 City Road SOUTHBANK VIC 3006,110351,24,TP-2016-557,144.9666706,-37.82185275
Post May 16,X001561,COMPLETED,2019,"65-71 Manningham Street, Parkville, 3052",106393,4,TP-2016-377/A,144.941643,-37.78644011
Post May 16,X0004800,COMPLETED,2019,"271 Royal Parade, Parkville, 3052",108497,6,TP-2017-222,144.9582816,-37.78723883
Post May 16,X000619,COMPLETED,2019,83-113 Batman Street WEST MELBOURNE VIC 3003,100852,21,TPM-2012-4/A,144.9499131,-37.81159519
Post May 16,X0002604,COMPLETED,2019,252 Collins Street MELBOURNE VIC 3000,102145,7,TP-2017-662,144.9654066,-37.81548303
Post May 16,X001383,COMPLETED,2019,47-55 Little Bourke Street MELBOURNE VIC 3000,105831,0,TP-2016-191,144.971109,-37.81102419
Post May 16,X0001624,COMPLETED,2019,54-60 Smith Street KENSINGTON VIC 3031,615421,3,TP-2016-1084,144.9341949,-37.7918744
Post May 16,X000192,COMPLETED,2020,386-392 Lonsdale Street MELBOURNE VIC 3000,105739,19,TP-2014-370/A,144.9607943,-37.81236935
Post May 16,X001254,COMPLETED,2020,65-67 Park Street SOUTH YARRA VIC 3141,107374,0,TP-2015-566,144.9817051,-37.83595338
Post May 16,X001052,COMPLETED,2020,697 Collins Street DOCKLANDS VIC 3008,692621,26,TPM-2014-9/A,144.9517627,-37.82077675
Post May 16,X000752,COMPLETED,2020,52-66 Dorcas Street SOUTHBANK VIC 3006,664090,23,TPM-2014-5,144.9680095,-37.83047511
Post May 16,X000753,COMPLETED,2020,52-66 Dorcas Street SOUTHBANK VIC 3006,664090,23,TPM-2014-5,144.9680095,-37.83047511
Post May 16,X0001660,COMPLETED,2020,433-455 Collins Street MELBOURNE VIC 3000,102100,41,ID-2015-6,144.9598761,-37.81797807
Post May 16,X000931,COMPLETED,2020,68-82 Southbank Boulevard SOUTHBANK VIC 3006,110766,99,TPM-2013-4,144.9639239,-37.8232151
Post May 16,X0002603,COMPLETED,2020,89-97 Haines Street NORTH MELBOURNE VIC 3051,104584,2,TP-2017-743,144.9449144,-37.79867725
Post May 16,X000093,COMPLETED,2021,134-160 Spencer Street MELBOURNE VIC 3000,108965,78,TPM-2014-32,144.953752,-37.81738965
Post May 16,X001567,COMPLETED,2021,33-35 King Street MELBOURNE VIC 3000,105295,31,TP-2013-666/C,144.9568891,-37.81962535
Post May 16,X000175,COMPLETED,2021,244-276 Spencer Street MELBOURNE VIC 3000,108962,80,TPM-2012-1/A,144.9526397,-37.81446556
Post May 16,X001528,COMPLETED,2021,374-380 Lonsdale Street MELBOURNE VIC 3000,105741,68,TPM-2011-48/A,144.9611142,-37.81202605
Post May 16,X0002614,COMPLETED,2021,114-152 Grattan Street CARLTON VIC 3053,104469,13,ID-2017-2,144.9648073,-37.79996957
Post May 16,X0002200,COMPLETED,2021,141 Arden Street NORTH MELBOURNE VIC 3051,105789,4,TP-2016-247/A,144.9450897,-37.80071341
Post May 16,X0008409,COMPLETED,2021,177-231 Rosslyn Street WEST MELBOURNE VIC 3003,102956,16,TPM-2014-22/B,144.9486,-37.8102
Post May 16,X0008411,COMPLETED,2021,177-231 Rosslyn Street WEST MELBOURNE VIC 3003,102956,8,TPM-2014-22/B,144.9486,-37.8102
Post May 16,X0003603,COMPLETED,2021,24 Cook Street PORT MELBOURNE VIC 3207,640580,4,TP-2018-141,144.9147291,-37.83167383
Post May 16,X0003602,COMPLETED,2021,26 Cook Street PORT MELBOURNE VIC 3207,640579,4,TP-2018-131,144.9149138,-37.83155206
Post May 16,X0002207,COMPLETED,2021,182-190 The Avenue PARKVILLE VIC 3052,100616,3,TP-2017-636,144.9577784,-37.7832279
Post May 16,X0006200,COMPLETED,2021,"State Netball Hockey Centre, 10 Brens Drive, Parkville, 3052",107427,3,ID-2019-1,144.9476927,-37.78535022
Post May 16,X0007800,COMPLETED,2021,3-43 Waterfront Way DOCKLANDS VIC 3008,620318,20,TPM-2017-11/A,144.9391,-37.8137
Post May 16,X001302,COMPLETED,2021,172-192 Lorimer Street DOCKLANDS VIC 3008,681466,43,TPM-2015-33,144.9334673,-37.8216735
Post May 16,X0005612,COMPLETED,2021,480-488 Elizabeth Street MELBOURNE VIC 3000,103296,52,TPMR-2015-14/B,144.9604777,-37.80751631
Post May 16,X0007610,COMPLETED,2022,"476 Docklands Drive, Docklands, 3008",580075,3,TP-2019-936,144.9357779,-37.81432653
Post May 16,X0001603,COMPLETED,2022,557-591 Swanston Street CARLTON VIC 3053,101269,30,TPM-2016-27,144.9628177,-37.80518048
Post May 16,X0004202,COMPLETED,2022,256-258 City Road SOUTHBANK VIC 3006,110389,59,TPMR-2012-22/A,144.9594925,-37.82591571
Post May 16,X0001609,COMPLETED,2022,375-381 Docklands Drive DOCKLANDS VIC 3008,560005,20,TP-2016-976,144.9416251,-37.81377348
Post May 16,X0005214,COMPLETED,2022,"24-32 Heffernan Lane, Melbourne, 3000",104783,1,TP-2018-929,144.96679,-37.81143916
Post May 16,X0009605,COMPLETED,2022,"23-25 Coromandel Place, Melbourne, 3000",102196,3,TP-2020-634,144.9689912,-37.81306463
Post May 16,X0010203,COMPLETED,2022,"512-544 Spencer Street, West Melbourne, 3003",108936,8,TPM-2017-5/A,144.9488,-37.8079
Post May 16,X0003200,COMPLETED,2022,"407-415 King Street, West Melbourne, 3003",105327,19,TP-2017-931/A,144.9527255,-37.81068398
Post May 16,X0009213,COMPLETED,2022,"633-669 Flinders Street, Docklands, 3008",103977,14,TP-2020-500,144.9535414,-37.82256813
Post May 16,X0005209,COMPLETED,2023,310-326 Exhibition Street MELBOURNE VIC 3000,692091,58,TPMR-2016-21/B,144.9695659,-37.80827441
Pre May 16,X000568,COMPLETED,2012,1-13 Abbotsford Street WEST MELBOURNE VIC 3003,100001,3,0,144.9432805,-37.80791988
Pre May 16,X000557,COMPLETED,2002,7-21 Anderson Street WEST MELBOURNE VIC 3003,100435,5,0,144.9415469,-37.80477682
Pre May 16,X000448,COMPLETED,2015,302-308 Arden Street NORTH MELBOURNE VIC 3051,100509,1,0,144.9377236,-37.79925034
Pre May 16,X000458,COMPLETED,2004,162-168 Arden Street NORTH MELBOURNE VIC 3051,100519,2,0,144.9462277,-37.80032041
Pre May 16,X000996,COMPLETED,2013,201 Arden Street NORTH MELBOURNE VIC 3051,100552,1,0,144.9410467,-37.80029861
Pre May 16,X000955,COMPLETED,2002,192-198 The Avenue PARKVILLE VIC 3052,100615,4,0,144.9578135,-37.78295736
Pre May 16,X000404,COMPLETED,2013,97-115 Berkeley Street MELBOURNE VIC 3000,101043,12,0,144.9587954,-37.80310281
Pre May 16,X000532,COMPLETED,2003,4-12 Blackwood Street NORTH MELBOURNE VIC 3051,101096,4,0,144.9547459,-37.80191511
Pre May 16,X000122,COMPLETED,2010,65-71 Bourke Street MELBOURNE VIC 3000,101114,2,0,144.9714501,-37.81227537
Pre May 16,X000124,COMPLETED,2006,636-638 Bourke Street MELBOURNE VIC 3000,101169,5,0,144.9547125,-37.81628199
Pre May 16,X000129,COMPLETED,2015,562-574 Bourke Street MELBOURNE VIC 3000,101173,13,0,144.9567556,-37.8155088
Pre May 16,X000135,COMPLETED,2010,314-336 Bourke Street MELBOURNE VIC 3000,101194,9,0,144.9638271,-37.81344774
Pre May 16,X000142,COMPLETED,2009,140 East 134-144 Bourke Street MELBOURNE VIC 3000,101213,13,0,144.9688374,-37.81202281
Pre May 16,X000411,COMPLETED,2008,The Bellagio Carlton 63-69 Bouverie Street CARLTON VIC 3053,101242,8,0,144.9613774,-37.80495785
Pre May 16,X000412,COMPLETED,2012,71-79 Bouverie Street CARLTON VIC 3053,101243,8,0,144.961409,-37.80478096
Pre May 16,X000390,COMPLETED,2003,117-121 Bouverie Street CARLTON VIC 3053,101245,4,0,144.9615731,-37.80376613
Pre May 16,X000367,COMPLETED,2009,Melbourne University 197-235 Bouverie Street CARLTON VIC 3053,101255,5,0,144.9616182,-37.80103675
Pre May 16,X000369,COMPLETED,2002,203-225 Cardigan Street CARLTON VIC 3053,101608,4,0,144.9649452,-37.80170813
Pre May 16,X000329,COMPLETED,2011,437-439 Cardigan Street CARLTON VIC 3053,101629,2,0,144.9659805,-37.7958311
Pre May 16,X000688,COMPLETED,2009,126-158 Clarendon Street EAST MELBOURNE VIC 3002,102007,5,0,144.9841024,-37.812282
Pre May 16,X000507,COMPLETED,2012,2-14 Cobden Street NORTH MELBOURNE VIC 3051,102045,4,0,144.9574951,-37.80552735
Pre May 16,X000437,COMPLETED,2007,St Hilda's College 19-27 College Crescent PARKVILLE VIC 3052,102051,5,0,144.9625605,-37.79262915
Pre May 16,X000438,COMPLETED,2014,Ormond College 29-55 College Crescent PARKVILLE VIC 3052,102052,3,0,144.9605351,-37.7930669
Pre May 16,X000439,COMPLETED,2006,Ormond College 29-55 College Crescent PARKVILLE VIC 3052,102052,3,0,144.9605351,-37.7930669
Pre May 16,X000057,COMPLETED,2009,241-245 Collins Street MELBOURNE VIC 3000,102081,5,0,144.9658297,-37.81606227
Pre May 16,X000059,COMPLETED,2012,287-301 Collins Street MELBOURNE VIC 3000,102087,9,0,144.9644915,-37.81642214
Pre May 16,X000068,COMPLETED,2015,568-580 Collins Street MELBOURNE VIC 3000,102112,67,0,144.9554242,-37.81836589
Pre May 16,X000076,COMPLETED,2008,454-456 Collins Street MELBOURNE VIC 3000,102122,11,0,144.9592317,-37.81734734
Pre May 16,X000074,COMPLETED,2012,400-402 Collins Street MELBOURNE VIC 3000,102130,7,0,144.9609385,-37.8168249
Pre May 16,X000603,COMPLETED,2015,52-54 Dudley Street WEST MELBOURNE VIC 3003,102972,5,0,144.9534802,-37.80866622
Pre May 16,X000999,COMPLETED,2012,142-150 Dynon Road WEST MELBOURNE VIC 3003,103005,2,0,144.930412,-37.80291641
Pre May 16,X000341,COMPLETED,2008,230-232 Elgin Street CARLTON VIC 3053,103127,3,0,144.9665749,-37.79681346
Pre May 16,X000351,COMPLETED,2010,138-144 Elgin Street CARLTON VIC 3053,103144,3,0,144.9698102,-37.7971508
Pre May 16,X000511,COMPLETED,2014,587-589 Elizabeth Street MELBOURNE VIC 3000,103244,10,0,144.9581241,-37.80460726
Pre May 16,X000512,COMPLETED,2007,591-593 Elizabeth Street MELBOURNE VIC 3000,103245,7,0,144.9580838,-37.80452349
Pre May 16,X000364,COMPLETED,2013,786-798 Elizabeth Street MELBOURNE VIC 3000,103257,10,0,144.9582638,-37.80007242
Pre May 16,X000525,COMPLETED,2013,130-140 Errol Street NORTH MELBOURNE VIC 3051,103494,5,0,144.9501887,-37.80183594
Pre May 16,X000111,COMPLETED,2009,113-149 Exhibition Street MELBOURNE VIC 3000,103597,22,0,144.9701094,-37.81281423
Pre May 16,X000092,COMPLETED,2003,96-102 Exhibition Street MELBOURNE VIC 3000,103628,10,0,144.9714494,-37.81330117
Pre May 16,X000235,COMPLETED,2009,Fraser Place Melbourne 17-19 Exploration Lane MELBOURNE VIC 3000,103631,14,0,144.9680775,-37.80895367
Pre May 16,X000533,COMPLETED,2005,RMIT Village 5-17 Flemington Road NORTH MELBOURNE VIC 3051,103810,6,0,144.955841,-37.80142395
Pre May 16,X000550,COMPLETED,2012,Unilodge on Villiers Apartments 51-63 Villiers Street NORTH MELBOURNE VIC 3051,103818,10,0,144.9533473,-37.7989505
Pre May 16,X000013,COMPLETED,2009,YHA Melbourne Central 562-564 Flinders Street MELBOURNE VIC 3000,103985,5,0,144.9556322,-37.82059587
Pre May 16,X000032,COMPLETED,2009,The Duke 142-148 Flinders Street MELBOURNE VIC 3000,104021,9,0,144.9700863,-37.8164075
Pre May 16,X000289,COMPLETED,2015,151-165 Franklin Street MELBOURNE VIC 3000,104084,45,0,144.9595688,-37.8090435
Pre May 16,X000316,COMPLETED,2009,58-64 Franklin Street MELBOURNE VIC 3000,104101,11,0,144.9608156,-37.80741732
Pre May 16,X000280,COMPLETED,2009,Cityside 50-64 Jeffcott Street WEST MELBOURNE VIC 3003,105111,15,0,144.951613,-37.81157691
Pre May 16,X000944,COMPLETED,2011,Yarra Boathouses 1-7 Boathouse Drive MELBOURNE VIC 3004,105113,3,0,144.9705641,-37.81990552
Pre May 16,X000359,COMPLETED,2003,101-111 Neill Street CARLTON VIC 3053,105188,3,0,144.9716134,-37.79470004
Pre May 16,X000625,COMPLETED,2012,133-165 Kensington Road WEST MELBOURNE VIC 3003,105221,1,0,144.9191747,-37.79963865
Pre May 16,X000254,COMPLETED,2014,312-318 La Trobe Street MELBOURNE VIC 3000,105483,24,0,144.9600702,-37.81028876
Pre May 16,X000272,COMPLETED,2008,58-66 La Trobe Street MELBOURNE VIC 3000,105491,4,0,144.9669434,-37.80829651
Pre May 16,X000387,COMPLETED,2009,100-106 Leicester Street CARLTON VIC 3053,105524,10,0,144.9608578,-37.80370838
Pre May 16,X000388,COMPLETED,2011,100-106 Leicester Street CARLTON VIC 3053,105524,10,0,144.9608578,-37.80370838
Pre May 16,X000173,COMPLETED,2006,23-33 Lonsdale Street MELBOURNE VIC 3000,105669,29,0,144.9713817,-37.80989265
Pre May 16,X000171,COMPLETED,2004,139-143 Lonsdale Street MELBOURNE VIC 3000,105680,16,0,144.9682613,-37.81078621
Pre May 16,X000163,COMPLETED,2014,269-321 Lonsdale Street MELBOURNE VIC 3000,105698,5,0,144.9639296,-37.81247167
Pre May 16,X000154,COMPLETED,2013,617-639 Lonsdale Street MELBOURNE VIC 3000,105718,47,0,144.9536247,-37.81542152
Pre May 16,X000193,COMPLETED,2002,University City Apartments 402-408 Lonsdale Street MELBOURNE VIC 3000,105737,13,0,144.9603272,-37.81245056
Pre May 16,X000226,COMPLETED,2005,Melbourne Central 183-265 La Trobe Street MELBOURNE VIC 3000,105746,6,0,144.9627706,-37.81050923
Pre May 16,X000195,COMPLETED,2003,QV Village 278-300 Swanston Street MELBOURNE VIC 3000,105749,31,0,144.965725,-37.81067869
Pre May 16,X000196,COMPLETED,2004,QV Village 278-300 Swanston Street MELBOURNE VIC 3000,105749,5,0,144.965725,-37.81067869
Pre May 16,X000130,COMPLETED,2004,451-457 Little Bourke Street MELBOURNE VIC 3000,105854,5,0,144.959416,-37.81446338
Pre May 16,X000164,COMPLETED,2002,Break Free (Heritage on Little Bourke) 318-322 Little Bourke Street MELBOURNE VIC 3000,105875,13,0,144.9631275,-37.81292592
Pre May 16,X000090,COMPLETED,2014,25-35 Little Collins Street MELBOURNE VIC 3000,105910,32,0,144.9727056,-37.81289879
Pre May 16,X000186,COMPLETED,2014,Metro Park West Apartments 557-561 Little Lonsdale Street MELBOURNE VIC 3000,106024,25,0,144.9553662,-37.81335272
Pre May 16,X000236,COMPLETED,2010,EastEnd Apartments 2-14 Exploration Lane MELBOURNE VIC 3000,106056,30,0,144.9684463,-37.8091399
Pre May 16,X000371,COMPLETED,2008,204-218 Lygon Street CARLTON VIC 3053,106237,7,0,144.9671431,-37.80218764
Pre May 16,X000376,COMPLETED,2003,98-126 Lygon Street CARLTON VIC 3053,106250,5,0,144.9667019,-37.80443771
Pre May 16,X000457,COMPLETED,2009,135-173 Macaulay Road NORTH MELBOURNE VIC 3051,106293,1,0,144.9405564,-37.79747129
Pre May 16,X000446,COMPLETED,2011,287-313 MacAulay Road NORTH MELBOURNE VIC 3051,106303,2,0,144.9371088,-37.79545188
Pre May 16,X000099,COMPLETED,2004,18-22 McKillop Street MELBOURNE VIC 3000,106374,7,0,144.9618186,-37.8151458
Pre May 16,X000961,COMPLETED,2014,Evo Apartments 107-115 Manningham Street PARKVILLE VIC 3052,106408,6,0,144.9406843,-37.78442153
Pre May 16,X000963,COMPLETED,2014,125-133 Manningham Street PARKVILLE VIC 3052,106414,2,0,144.9403735,-37.78384346
Pre May 16,X000431,COMPLETED,2003,9-13 Earl Street CARLTON VIC 3053,107085,8,0,144.9654309,-37.80616681
Pre May 16,X000503,COMPLETED,2005,140-164 Peel Street NORTH MELBOURNE VIC 3051,107528,4,0,144.9566607,-37.80444383
Pre May 16,X000381,COMPLETED,2014,95-125 Pelham Street CARLTON VIC 3053,107541,15,0,144.964422,-37.80282176
Pre May 16,X000987,COMPLETED,2011,CSL Limited 39-79 Poplar Road PARKVILLE VIC 3052,107618,1,0,144.9447501,-37.78034463
Pre May 16,X000415,COMPLETED,2010,205-209 Queensberry Street CARLTON VIC 3053,107869,4,0,144.9619971,-37.80465676
Pre May 16,X000904,COMPLETED,2015,31-49 Queens Bridge Street SOUTHBANK VIC 3006,108045,67,0,144.9613935,-37.82293404
Pre May 16,X000133,COMPLETED,2003,184-192 Queen Street MELBOURNE VIC 3000,108104,18,0,144.9606798,-37.81402804
Pre May 16,X000375,COMPLETED,2011,83-95 Rathdowne Street CARLTON VIC 3053,108155,5,0,144.9687987,-37.80485099
Pre May 16,X000352,COMPLETED,2004,349-355 Rathdowne Street CARLTON VIC 3053,108193,6,0,144.969914,-37.79819052
Pre May 16,X000353,COMPLETED,2004,357-363 Rathdowne Street CARLTON VIC 3053,108194,4,0,144.9699425,-37.79802699
Pre May 16,X000595,COMPLETED,2011,42-50 Rosslyn Street WEST MELBOURNE VIC 3003,108443,5,0,144.9525577,-37.80740897
Pre May 16,X000304,COMPLETED,2010,380-388 Russell Street MELBOURNE VIC 3000,108561,4,0,144.9661017,-37.8074831
Pre May 16,X000113,COMPLETED,2002,Hero Apartments 114-120 Russell Street MELBOURNE VIC 3000,108591,15,0,144.9690282,-37.81349357
Pre May 16,X000715,COMPLETED,2006,519-539 St Kilda Road MELBOURNE VIC 3004,108646,9,0,144.9798741,-37.84556679
Pre May 16,X000592,COMPLETED,2008,478-486 Spencer Street WEST MELBOURNE VIC 3003,108942,3,0,144.9498257,-37.80874254
Pre May 16,X000593,COMPLETED,2003,61-63 Stanley Street WEST MELBOURNE VIC 3003,109003,2,0,144.9495462,-37.80835759
Pre May 16,X000590,COMPLETED,2007,115-121 Stanley Street WEST MELBOURNE VIC 3003,109013,3,0,144.9479487,-37.80928863
Pre May 16,X000588,COMPLETED,2014,162-170 Stanley Street WEST MELBOURNE VIC 3003,109042,4,0,144.9471711,-37.80904391
Pre May 16,X000707,COMPLETED,2012,Olympic Park 2-100 Olympic Boulevard MELBOURNE VIC 3004,109256,4,0,144.9824354,-37.82485516
Pre May 16,X000331,COMPLETED,2007,864-866 Swanston Street CARLTON VIC 3053,109349,2,0,144.9651384,-37.79606949
Pre May 16,X000626,COMPLETED,2013,50-60 Lloyd Street KENSINGTON VIC 3031,109449,2,0,144.9299594,-37.79958628
Pre May 16,X000627,COMPLETED,2009,50-60 Lloyd Street KENSINGTON VIC 3031,109449,2,0,144.9299594,-37.79958628
Pre May 16,X000630,COMPLETED,2004,50-60 Lloyd Street KENSINGTON VIC 3031,109449,2,0,144.9299594,-37.79958628
Pre May 16,X000631,COMPLETED,2006,50-60 Lloyd Street KENSINGTON VIC 3031,109449,2,0,144.9299594,-37.79958628
Pre May 16,X000633,COMPLETED,2011,50-60 Lloyd Street KENSINGTON VIC 3031,109449,2,0,144.9299594,-37.79958628
Pre May 16,X000635,COMPLETED,2011,50-60 Lloyd Street KENSINGTON VIC 3031,109449,2,0,144.9299594,-37.79958628
Pre May 16,X000636,COMPLETED,2011,50-60 Lloyd Street KENSINGTON VIC 3031,109449,2,0,144.9299594,-37.79958628
Pre May 16,X000534,COMPLETED,2005,12-24 Tyrone Street NORTH MELBOURNE VIC 3051,109554,4,0,144.9543622,-37.80091468
Pre May 16,X000354,COMPLETED,2014,14-28 University Street CARLTON VIC 3053,109572,0,0,144.9693014,-37.79941827
Pre May 16,X000560,COMPLETED,2007,Silk Apartments 493-499 Victoria Street WEST MELBOURNE VIC 3003,109756,4,0,144.9434493,-37.80481305
Pre May 16,X000492,COMPLETED,2012,448 Victoria Street NORTH MELBOURNE VIC 3051,109803,2,0,144.9513519,-37.80505506
Pre May 16,X000548,COMPLETED,2003,1-9 Villiers Street NORTH MELBOURNE VIC 3051,109857,4,0,144.9520654,-37.79989626
Pre May 16,X000207,COMPLETED,2004,277-287 William Street MELBOURNE VIC 3000,110108,13,0,144.9563615,-37.8125206
Pre May 16,X000535,COMPLETED,2010,16-28 Wreckyn Street NORTH MELBOURNE VIC 3051,110261,4,0,144.9542365,-37.80069722
Pre May 16,X000932,COMPLETED,2008,18 Kavanagh Street SOUTHBANK VIC 3006,110416,5,0,144.9660269,-37.82271891
Pre May 16,X000756,COMPLETED,2010,Elm Apartments 18-24 Dorcas Street SOUTHBANK VIC 3006,110435,17,0,144.9695712,-37.83002099
Pre May 16,X000726,COMPLETED,2010,109-117 Clarendon Street SOUTHBANK VIC 3006,110482,33,0,144.9584752,-37.82773625
Pre May 16,X000911,COMPLETED,2009,Melbourne Convention Exhibition Centre 2-26 Clarendon Street SOUTH WHARF VIC 3006,110484,3,0,144.9523045,-37.82538979
Pre May 16,X000912,COMPLETED,2009,Melbourne Convention Exhibition Centre 2-26 Clarendon Street SOUTH WHARF VIC 3006,110484,2,0,144.9523045,-37.82538979
Pre May 16,X000840,COMPLETED,2012,674-702 Lorimer Street PORT MELBOURNE VIC 3207,110515,1,0,144.9233618,-37.82230248
Pre May 16,X000841,COMPLETED,2010,704-744 Lorimer Street PORT MELBOURNE VIC 3207,110516,1,0,144.9254499,-37.82167499
Pre May 16,X000767,COMPLETED,2007,Hallmarc Business Park 69-79 Lorimer Street DOCKLANDS VIC 3008,110528,2,0,144.9427044,-37.82495447
Pre May 16,X000768,COMPLETED,2011,81-83 Lorimer Street DOCKLANDS VIC 3008,110529,5,0,144.9421449,-37.82460896
Pre May 16,X000835,COMPLETED,2010,49-89 Turner Street PORT MELBOURNE VIC 3207,110551,2,0,144.9253878,-37.82302894
Pre May 16,X000848,COMPLETED,2002,157-171 Salmon Street PORT MELBOURNE VIC 3207,110588,4,0,144.9212377,-37.82732829
Pre May 16,X000746,COMPLETED,2006,175-187 Sturt Street SOUTHBANK VIC 3006,110617,2,0,144.9662634,-37.82867473
Pre May 16,X000763,COMPLETED,2012,Arts Centre Melbourne 2-128 St Kilda Road SOUTHBANK VIC 3006,110733,3,0,144.9681709,-37.82094593
Pre May 16,X001001,COMPLETED,2007,Spencer Outlet Centre 163-261 Spencer Street DOCKLANDS VIC 3008,110843,3,0,144.95056,-37.81450443
Pre May 16,X000577,COMPLETED,2011,230-238 Roden Street WEST MELBOURNE VIC 3003,528836,3,0,144.9448076,-37.80972102
Pre May 16,X000547,COMPLETED,2004,2-6 High Street NORTH MELBOURNE VIC 3051,533327,6,0,144.9539186,-37.79988631
Pre May 16,X000408,COMPLETED,2014,2-14 Leicester Street CARLTON VIC 3053,533992,19,0,144.9603004,-37.80604262
Pre May 16,X000284,COMPLETED,2015,Infinity 8 Apartments 243-263 Franklin Street MELBOURNE VIC 3000,554417,12,0,144.9566355,-37.80969653
Pre May 16,X000286,COMPLETED,2012,Infinity 8 Apartments 243-263 Franklin Street MELBOURNE VIC 3000,554417,19,0,144.9566355,-37.80969653
Pre May 16,X001120,COMPLETED,2002,The Arkley 16-32 Rakaia Way DOCKLANDS VIC 3008,560001,23,0,144.94123,-37.81459063
Pre May 16,X001107,COMPLETED,2002,24-42 Newquay Promenade DOCKLANDS VIC 3008,560004,5,0,144.9421716,-37.81436322
Pre May 16,X000921,COMPLETED,2014,110-120 Kavanagh Street SOUTHBANK VIC 3006,570683,37,0,144.9620594,-37.82548253
Pre May 16,X000875,COMPLETED,2015,294-308 Lorimer Street PORT MELBOURNE VIC 3207,570827,2,0,144.9073333,-37.82542011
Pre May 16,X000505,COMPLETED,2007,1-7 O'Connell Street NORTH MELBOURNE VIC 3051,573297,3,0,144.957983,-37.80571983
Pre May 16,X001110,COMPLETED,2003,The Nolan 37-43 Caravel Lane DOCKLANDS VIC 3008,573327,25,0,144.9406747,-37.81492046
Pre May 16,X001027,COMPLETED,2013,Bourke Junction 700-704 Bourke Street DOCKLANDS VIC 3008,573401,16,0,144.9493798,-37.81717768
Pre May 16,X000675,COMPLETED,2003,Vue Apartments 56-80 Speakmen Street KENSINGTON VIC 3031,573767,12,0,144.9163012,-37.79379843
Pre May 16,X001031,COMPLETED,2007,Watergate Apartments 2-24 Waterview Walk DOCKLANDS VIC 3008,576023,6,0,144.9478097,-37.8191795
Pre May 16,X000589,COMPLETED,2004,227-235 Roden Street WEST MELBOURNE VIC 3003,579360,3,0,144.9453763,-37.81008162
Pre May 16,X000771,COMPLETED,2013,Yarra Point Apartments 1-13 Point Park Crescent DOCKLANDS VIC 3008,579363,31,0,144.9412209,-37.82355726
Pre May 16,X000702,COMPLETED,2009,239-293 Wellington Parade South EAST MELBOURNE VIC 3002,580629,18,0,144.9758795,-37.81643413
Pre May 16,X000366,COMPLETED,2003,143-151 Barry Street CARLTON VIC 3053,581299,2,0,144.9594299,-37.80052593
Pre May 16,X000469,COMPLETED,2014,714-720 Queensberry Street NORTH MELBOURNE VIC 3051,585863,4,0,144.94336,-37.80205375
Pre May 16,X000314,COMPLETED,2007,475-497 Swanston Street MELBOURNE VIC 3000,587480,49,0,144.9620895,-37.8072889
Pre May 16,X001051,COMPLETED,2005,V1 Village Docklands 8-18 McCrae Street DOCKLANDS VIC 3008,588061,19,0,144.9507623,-37.82150808
Pre May 16,X000868,COMPLETED,2010,19-25 Wharf Road PORT MELBOURNE VIC 3207,589467,2,0,144.9075923,-37.82794007
Pre May 16,X000651,COMPLETED,2004,4-12 Derby Street KENSINGTON VIC 3031,589627,3,0,144.9263608,-37.79535005
Pre May 16,X000380,COMPLETED,2006,26-34 Little Cardigan Street CARLTON VIC 3053,592721,5,0,144.9655979,-37.80410151
Pre May 16,X000396,COMPLETED,2007,127-133 Leicester Street CARLTON VIC 3053,592858,9,0,144.9602109,-37.80290284
Pre May 16,X001139,COMPLETED,2009,Harbour Town 420-454 Docklands Drive DOCKLANDS VIC 3008,593737,6,0,144.9377585,-37.81317308
Pre May 16,X000871,COMPLETED,2011,27-39 Wirraway Drive PORT MELBOURNE VIC 3207,593746,2,0,144.909235,-37.82589144
Pre May 16,X000876,COMPLETED,2008,310-314 Lorimer Street PORT MELBOURNE VIC 3207,593754,4,0,144.9077846,-37.82456547
Pre May 16,X000661,COMPLETED,2005,65 Kensington Road KENSINGTON VIC 3031,597178,3,0,144.9249546,-37.79601619
Pre May 16,X000888,COMPLETED,2011,80-88 Wirraway Drive PORT MELBOURNE VIC 3207,597227,2,0,144.9098932,-37.8248163
Pre May 16,X000620,COMPLETED,2015,216-232 Kensington Road WEST MELBOURNE VIC 3003,598604,1,0,144.9161047,-37.80038967
Pre May 16,X000680,COMPLETED,2009,Showgrounds Village 320-386 Epsom Road FLEMINGTON VIC 3031,602256,2,0,144.9150996,-37.78225271
Pre May 16,X000046,COMPLETED,2011,384-386 Flinders Lane MELBOURNE VIC 3000,603904,7,0,144.9611718,-37.81789524
Pre May 16,X001073,COMPLETED,2009,The Merchant 834-846 Bourke Street DOCKLANDS VIC 3008,604118,8,0,144.9431188,-37.81977079
Pre May 16,X001062,COMPLETED,2006,Dock 5 41-55 Victoria Harbour Promenade DOCKLANDS VIC 3008,604119,31,0,144.9429234,-37.81935155
Pre May 16,X001040,COMPLETED,2012,Lantern 705-715 Collins Street DOCKLANDS VIC 3008,605909,2,0,144.9511384,-37.82088296
Pre May 16,X001135,COMPLETED,2008,364-378 Docklands Drive DOCKLANDS VIC 3008,608355,7,0,144.941859,-37.81286334
Pre May 16,X000982,COMPLETED,2006,11 Parkville Avenue PARKVILLE VIC 3052,608452,2,0,144.9410244,-37.78085036
Pre May 16,X000978,COMPLETED,2006,6 Garrard Street PARKVILLE VIC 3052,608610,1,0,144.9420313,-37.77963341
Pre May 16,X001071,COMPLETED,2008,The Gauge Site 821-827 Bourke Street DOCKLANDS VIC 3008,609479,6,0,144.9441598,-37.82024314
Pre May 16,X001064,COMPLETED,2008,The Mosaic 791-803 Bourke Street DOCKLANDS VIC 3008,611364,9,0,144.9456211,-37.81974063
Pre May 16,X001068,COMPLETED,2012,Serrata Apartments 813-817 Bourke Street DOCKLANDS VIC 3008,611366,16,0,144.9446907,-37.81994818
Pre May 16,X000820,COMPLETED,2007,161-189 Turner Street PORT MELBOURNE VIC 3207,611377,2,0,144.9320441,-37.82353192
Pre May 16,X000819,COMPLETED,2015,"92-102 Lorimer Street, DOCKLANDS, 3008",665148,39,0,144.9431953,-37.82430056
Pre May 16,X000977,COMPLETED,2009,52-62 Cade Way PARKVILLE VIC 3052,612698,5,0,144.939127,-37.77619477
Pre May 16,X000971,COMPLETED,2008,23-51 Cade Way PARKVILLE VIC 3052,612726,3,0,144.9392749,-37.77745026
Pre May 16,X000903,COMPLETED,2009,28 Freshwater Place SOUTHBANK VIC 3006,613006,26,0,144.9622962,-37.82267317
Pre May 16,X001066,COMPLETED,2010,790-814 Collins Street DOCKLANDS VIC 3008,613252,11,0,144.9458326,-37.82104416
Pre May 16,X000886,COMPLETED,2009,67-77 Wharf Road PORT MELBOURNE VIC 3207,613950,2,0,144.909504,-37.82675609
Pre May 16,X001158,COMPLETED,2009,7-9 Rankins Road KENSINGTON VIC 3031,616109,4,0,144.9322926,-37.78880349
Pre May 16,X000959,COMPLETED,2008,Royal Womens Hospital 18-22 Flemington Road PARKVILLE VIC 3050,618951,8,0,144.9549953,-37.79885018
Pre May 16,X000656,COMPLETED,2009,50-58 Altona Street KENSINGTON VIC 3031,619479,5,0,144.9266259,-37.79774903
Pre May 16,X001147,COMPLETED,2008,177-187 Boundary Road NORTH MELBOURNE VIC 3051,619509,6,0,144.9395663,-37.78864444
Pre May 16,X000282,COMPLETED,2015,218-236 A'Beckett Street MELBOURNE VIC 3000,621414,25,0,144.9565992,-37.81017257
Pre May 16,X000648,COMPLETED,2009,34-48 Altona Street KENSINGTON VIC 3031,621972,4,0,144.9268663,-37.7980964
Pre May 16,X000701,COMPLETED,2009,235 Wellington Parade South EAST MELBOURNE VIC 3002,623202,3,0,144.9765033,-37.81632518
Pre May 16,X000869,COMPLETED,2009,20-36 Sabre Drive PORT MELBOURNE VIC 3207,624112,2,0,144.9058847,-37.82747829
Pre May 16,X000663,COMPLETED,2010,70 Derby Street KENSINGTON VIC 3031,624169,4,0,144.9278352,-37.79752603
Pre May 16,X000975,COMPLETED,2009,35 Parkville Avenue PARKVILLE VIC 3052,626946,2,0,144.9412506,-37.77955286
Pre May 16,X000343,COMPLETED,2011,145-161 Princes Street CARLTON VIC 3053,627566,8,0,144.9705254,-37.79295182
Pre May 16,X001105,COMPLETED,2011,Harbour One Apartments 2-10 Marmion Place DOCKLANDS VIC 3008,627658,23,0,144.9421786,-37.8134273
Pre May 16,X000779,COMPLETED,2010,2 Stokehold Mews DOCKLANDS VIC 3008,627712,4,0,144.9373575,-37.82287721
Pre May 16,X001049,COMPLETED,2012,733-747 Collins Street DOCKLANDS VIC 3008,628714,16,0,144.9494199,-37.82095115
Pre May 16,X001020,COMPLETED,2012,990 La Trobe Street DOCKLANDS VIC 3008,631646,9,0,144.946739,-37.81382669
Pre May 16,X000664,COMPLETED,2012,63-77 Henry Street KENSINGTON VIC 3031,631887,5,0,144.9262767,-37.7962423
Pre May 16,X000327,COMPLETED,2012,487-495 Cardigan Street CARLTON VIC 3053,634042,6,0,144.9662339,-37.79362198
Pre May 16,X001097,COMPLETED,2012,83 Geographe Street DOCKLANDS VIC 3008,678343,3,0,144.9452428,-37.8200147
Pre May 16,X000813,COMPLETED,2012,68 South Wharf Drive DOCKLANDS VIC 3008,637396,3,0,144.9369867,-37.82212836
Pre May 16,X000818,COMPLETED,2012,9 Stokehold Mews DOCKLANDS VIC 3008,637398,3,0,144.9371742,-37.8225542
Pre May 16,X000806,COMPLETED,2012,59 South Wharf Drive DOCKLANDS VIC 3008,637400,3,0,144.9370216,-37.82251956
Pre May 16,X000811,COMPLETED,2012,65 South Wharf Drive DOCKLANDS VIC 3008,637403,3,0,144.9367956,-37.82246825
Pre May 16,X000794,COMPLETED,2012,24 South Wharf Drive DOCKLANDS VIC 3008,637415,3,0,144.9398968,-37.82278891
Pre May 16,X000796,COMPLETED,2012,26 South Wharf Drive DOCKLANDS VIC 3008,637416,3,0,144.9397931,-37.82276536
Pre May 16,X000798,COMPLETED,2012,28 South Wharf Drive DOCKLANDS VIC 3008,637417,3,0,144.9396893,-37.82274182
Pre May 16,X000795,COMPLETED,2012,25 South Wharf Drive DOCKLANDS VIC 3008,637421,3,0,144.9397216,-37.82310759
Pre May 16,X000983,COMPLETED,2013,86-90 Cade Way PARKVILLE VIC 3052,637689,2,0,144.9384561,-37.7782127
Pre May 16,X000916,COMPLETED,2010,27-59 Whiteman Street SOUTHBANK VIC 3006,640947,27,0,144.958312,-37.82606624
Pre May 16,X001002,COMPLETED,2015,263-283 Spencer Street DOCKLANDS VIC 3008,644320,15,0,144.9511859,-37.81433178
Post May 16,X001075,COMPLETED,2016,Victoria Harbour Precinct 938 Collins Street DOCKLANDS VIC 3008,106983,2,TP-2014-43/A,144.9367403,-37.81977616
Post May 16,X000082,COMPLETED,2016,258-274 Collins Street MELBOURNE VIC 3000,102143,4,TP-2012-829,144.9648904,-37.81537999
Post May 16,X001000,COMPLETED,2016,5-9 Lloyd Street WEST MELBOURNE VIC 3003,105660,2,TP-2011-945/B,144.9323937,-37.80162307
Post May 16,X000714,COMPLETED,2016,405 St Kilda Road MELBOURNE VIC 3004,108623,6,TP-2011-510,144.9761191,-37.83601714
Post May 16,X000493,COMPLETED,2016,392-398 Victoria Street NORTH MELBOURNE VIC 3051,109816,4,TP-2007-658/A,144.952968,-37.80523133
Post May 16,X000041,COMPLETED,2015,559-587 Collins Street MELBOURNE VIC 3000,579252,26,TPM-2009-10,144.9557247,-37.81902009
Post May 16,X000936,COMPLETED,2016,57-61 City Road SOUTHBANK VIC 3006,110354,37,TP-2010-608/A,144.9659933,-37.82215785
Post May 16,X001523,COMPLETED,2016,65-79 Galada Avenue PARKVILLE VIC 3052,612700,5,TPM-2012-39,144.9391073,-37.77956819
Post May 16,X001516,COMPLETED,2016,366-392 Queensberry Street NORTH MELBOURNE VIC 3051,102201,4,TP-2012-315/A,144.9550184,-37.80326652
Post May 16,X000182,COMPLETED,2016,Melbourne One Apartments 612-620 Lonsdale Street MELBOURNE VIC 3000,105719,46,TPM-2009-41,144.9539168,-37.81423941
Post May 16,X000181,COMPLETED,2016,Australis Apartments 593-611 Little Lonsdale Street MELBOURNE VIC 3000,106028,46,TPM-2009-40/A,144.9538308,-37.81380962
Post May 16,X001256,COMPLETED,2017,383-405 King Street WEST MELBOURNE VIC 3003,105326,10,TP-2015-515/A,144.9529245,-37.8111076
Post May 16,X000328,COMPLETED,2017,932-944 Swanston Street CARLTON VIC 3053,109331,3,TP-2013-1059,144.9652988,-37.79457313
Post May 16,X000605,COMPLETED,2017,130-154 Dudley Street WEST MELBOURNE VIC 3003,102958,9,TPM-2011-40/A,144.9506136,-37.80952166
Post May 16,X001519,COMPLETED,2017,130-154 Dudley Street WEST MELBOURNE VIC 3003,102958,9,TPM-2011-40/A,144.9506136,-37.80952166
Post May 16,X000215,COMPLETED,2017,Eporo Tower 279-289 La Trobe Street MELBOURNE VIC 3000,105446,42,TPM-2011-9,144.9608641,-37.81073633
Post May 16,X001115,COMPLETED,2017,411-423 Docklands Drive DOCKLANDS VIC 3008,593733,19,TPD-2012-43,144.939715,-37.81472008
Post May 16,X001116,COMPLETED,2017,411-423 Docklands Drive DOCKLANDS VIC 3008,593733,23,TPD-2012-43,144.939715,-37.81472008
Post May 16,X000787,COMPLETED,2017,73-91 South Wharf Drive DOCKLANDS VIC 3008,627016,30,TPD-2014-7,144.9359189,-37.82238476
Post May 16,X000717,COMPLETED,2017,555-563 St Kilda Road MELBOURNE VIC 3004,632373,23,0,144.9805697,-37.84730297
Post May 16,X000740,COMPLETED,2017,42-48 Balston Street SOUTHBANK VIC 3006,559332,32,TPM-2012-3,144.9624854,-37.82673378
Post May 16,X001387,COMPLETED,2017,114 Flinders Street MELBOURNE VIC 3000,104025,6,TPM-2009-34/B,144.970758,-37.81595693
Post May 16,X001096,COMPLETED,2017,869-883 Collins Street DOCKLANDS VIC 3008,667600,30,TPM-2014-50,144.9429799,-37.82148719
Post May 16,X000450,COMPLETED,2017,1 Shiel Street NORTH MELBOURNE VIC 3051,108695,7,TP-2014-115/A,144.9438086,-37.79832303
Post May 16,X000743,COMPLETED,2017,120-130 Southbank Boulevard SOUTHBANK VIC 3006,110342,6,ID-2013-2,144.9664971,-37.82399161
Post May 16,X001127,COMPLETED,2017,6-22 Pearl River Road DOCKLANDS VIC 3008,593732,43,TPD-2012-29/A,144.938287,-37.81546212
Post May 16,X001581,COMPLETED,2017,89-105 Collins Street MELBOURNE VIC 3000,102067,0,TP-2015-803/A,144.9708165,-37.81487457
Post May 16,X001192,COMPLETED,2017,Melbourne Central 183-265 La Trobe Street MELBOURNE VIC 3000,105746,1,TP-2014-1135,144.9627706,-37.81050923
Post May 16,X000570,COMPLETED,2017,82-84 Ireland Street WEST MELBOURNE VIC 3003,105093,5,TP-2013-260,144.9437363,-37.80662529
Post May 16,X000346,COMPLETED,2017,494-516 Drummond Street CARLTON VIC 3053,627568,9,TPM-2014-39,144.9700228,-37.79357998
Post May 16,X001277,COMPLETED,2017,46-54 Henderson Street NORTH MELBOURNE VIC 3051,104786,3,TP-2015-301,144.9395638,-37.79730229
Post May 16,X000528,COMPLETED,2017,33-35 Arden Street NORTH MELBOURNE VIC 3051,579248,4,TP-2014-193,144.9505202,-37.80135261
Post May 16,X000305,COMPLETED,2017,57-77 Dudley Street WEST MELBOURNE VIC 3003,108947,39,TPM-2010-13/A,144.9505875,-37.81025672
Post May 16,X001529,COMPLETED,2017,(32 South Wharf) 469-591 Lorimer Street PORT MELBOURNE VIC 3207,110506,2,TPM-2016-25,144.9136029,-37.82148005
Post May 16,X000149,COMPLETED,2017,20-40 Rose Lane MELBOURNE VIC 3000,105717,51,TPM-2014-6,144.9542482,-37.81498912
Post May 16,X000786,COMPLETED,2017,86 South Wharf Drive DOCKLANDS VIC 3008,677826,4,TP-2015-565,144.9354531,-37.82186675
Post May 16,X000853,COMPLETED,2017,552-578 Lorimer Street PORT MELBOURNE VIC 3207,650393,2,0,144.9153361,-37.82272568
Post May 16,X000078,COMPLETED,2017,360-374 Collins Street MELBOURNE VIC 3000,102133,13,TP-2014-986/A,144.962171,-37.81616885
Post May 16,X001169,COMPLETED,2018,33 Coventry Street SOUTHBANK VIC 3006,110455,21,TP-2014-1037,144.9696443,-37.82940306
Post May 16,X001306,COMPLETED,2015,Royal Childrens Hospital 48-50 Flemington Road PARKVILLE VIC 3052,103908,0,TPM-2015-23,144.9495408,-37.79361764
Post May 16,X000452,COMPLETED,2018,"108 Haines Street, North Melbourne, 3051",110646,13,TP-2014-955,144.9434743,-37.7982701
Post May 16,X001215,COMPLETED,2018,312-320 City Road SOUTHBANK VIC 3006,110399,43,TPM-2010-31,144.9582484,-37.82712269
Post May 16,X001272,COMPLETED,2018,103 Drummond Street CARLTON VIC 3053,102632,3,TP-2015-384,144.96735,-37.80423245
Post May 16,X001240,COMPLETED,2018,"100 South Wharf Drive, Docklands, 3008",694342,4,TP-2016-289,144.9345318,-37.82165383
Post May 16,X000018,COMPLETED,2013,31-39 Elizabeth Street MELBOURNE VIC 3000,103172,2,TP-2011-829/A,144.9643344,-37.81742176
Post May 16,X000391,COMPLETED,2015,123-127 Bouverie Street CARLTON VIC 3053,101246,14,TP-2013-947/A,144.9614617,-37.80349578
Post May 16,X001340,COMPLETED,2018,"221 Pelham Street, CARLTON, 3053",107545,14,TP-2016-46,144.9589841,-37.80225591
Post May 16,X0001612,COMPLETED,2018,The Primrose Potter Australian Ballet Centre 2-6 Kavanagh Street SOUTHBANK VIC 3006,110411,2,TP-2016-991,144.9673678,-37.82197176
Post May 16,X001035,COMPLETED,2018,2-12 Batmans Hill Drive DOCKLANDS VIC 3008,628713,27,TPM-2014-37,144.950065,-37.82172968
Post May 16,X001320,COMPLETED,2018,Carpark 399-401 Little Lonsdale Street MELBOURNE VIC 3000,106019,38,TPM-2009-23/C,144.9601358,-37.81204562
Post May 16,X001551,COMPLETED,2018,16-32 Leicester Street CARLTON VIC 3053,105527,17,TP-2016-825,144.9605077,-37.80570167
Post May 16,X0005007,COMPLETED,2018,"30 Flemington Road, Parkville, 3052",103909,4,ID-2016-1,144.9538501,-37.79754455
Post May 16,X001113,COMPLETED,2019,387-395 Docklands Drive DOCKLANDS VIC 3008,601814,18,TPD-2012-41/A,144.9408371,-37.81401982
Post May 16,X001281,COMPLETED,2019,614-616 Queensberry Street NORTH MELBOURNE VIC 3051,107972,3,TP-2015-862,144.9469518,-37.80250584
Post May 16,X0001643,COMPLETED,2019,River View House 274-282 Flinders Street MELBOURNE VIC 3000,103328,10,TP-2010-276/D,144.9650858,-37.81765999
Post May 16,X0004203,COMPLETED,2019,Victorian College Of The Arts 234 St Kilda Road SOUTHBANK VIC 3006,108654,3,TP-2018-423,144.9693876,-37.82445562
Post May 16,X001341,COMPLETED,2019,684-688 Elizabeth Street MELBOURNE VIC 3000,103264,19,TP-2015-1219,144.9583041,-37.80236558
Post May 16,X000262,COMPLETED,2019,224-252 La Trobe Street MELBOURNE VIC 3000,105485,84,TPM-2014-10,144.962281,-37.80965321
Post May 16,X001234,COMPLETED,2019,109-133 Rosslyn Street WEST MELBOURNE VIC 3003,108411,8,TP-2015-391,144.9506402,-37.80905673
Post May 16,X001549,COMPLETED,2019,"109-111 Little Lonsdale Street, MELBOURNE 3000",106006,21,TP-2016-537,144.9686039,-37.80945966
Post May 16,X0005006,COMPLETED,2019,580-600 Lorimer Street PORT MELBOURNE VIC 3207,650394,2,TP-2015-319/B,144.9163806,-37.82254848
Post May 16,X0005213,COMPLETED,2019,450-454 Queensberry Street NORTH MELBOURNE VIC 3051,108015,4,TP-2014-482/B,144.9523781,-37.80306546
Post May 16,X000414,COMPLETED,2019,156-172 Victoria Street CARLTON VIC 3053,644814,77,TPM-2014-13,144.9619402,-37.80614542
Post May 16,X001180,COMPLETED,2019,64-68 Stubbs Street KENSINGTON VIC 3031,616152,2,TP-2014-1080/B,144.935278,-37.79113281
Post May 16,X0005605,COMPLETED,2019,"96-100 Victoria Street, Carlton, 3053",109848,2,TP-2018-994,144.9641763,-37.80649761
Post May 16,X0002805,COMPLETED,2019,RMIT Village 5-17 Flemington Road NORTH MELBOURNE VIC 3051,103810,12,TP-2015-1204/A,144.955841,-37.80142395
Post May 16,X0003201,COMPLETED,2019,104-110 Elizabeth Street MELBOURNE VIC 3000,103320,8,TP-2017-955,144.9640203,-37.81544356
Post May 16,X001188,COMPLETED,2017,Ormond College 29-55 College Crescent PARKVILLE VIC 3052,102052,3,TP-2014-1116,144.9605351,-37.7930669
Post May 16,X001360,COMPLETED,2020,3-11 Howard Street WEST MELBOURNE VIC 3003,105010,5,TP-2015-1218,144.9529789,-37.80701505
Post May 16,X0004802,COMPLETED,2020,39-43 Leveson Street NORTH MELBOURNE VIC 3051,105610,3,TP-2017-78/A,144.950513,-37.80392261
Post May 16,X0001652,COMPLETED,2020,123-127 Bouverie Street CARLTON VIC 3053,101246,14,TP-2017-188,144.9614617,-37.80349578
Post May 16,X001565,COMPLETED,2020,1-5 Queen Street MELBOURNE VIC 3000,108057,24,TP-2014-524/A,144.9620226,-37.81878499
Post May 16,X0001634,COMPLETED,2020,263-283 Spencer Street DOCKLANDS VIC 3008,644320,41,TPMR-2017-4,144.9511859,-37.81433178
Post May 16,X001253,COMPLETED,2020,91-93 Millswyn Street SOUTH YARRA VIC 3141,106636,4,TP-2015-668,144.9800981,-37.83519381
Post May 16,X0004806,COMPLETED,2020,Freemasons Hospital 162-198 Clarendon Street EAST MELBOURNE VIC 3002,102005,9,TP-2015-1136/B,144.9841889,-37.81107986
Post May 16,X0005606,COMPLETED,2020,25-29 Coventry Street SOUTHBANK VIC 3006,110452,21,TP-2012-170/C,144.9700371,-37.82937789
Post May 16,X001297,COMPLETED,2020,614-666 Flinders Street DOCKLANDS VIC 3008,559277,1,TPM-2015-20,144.9534171,-37.82111519
Post May 16,X001570,COMPLETED,2020,141-149 La Trobe Street MELBOURNE VIC 3000,105441,43,TP-2014-910/A,144.9674791,-37.8087754
Post May 16,X001537,COMPLETED,2020,233-239 Dryburgh Street NORTH MELBOURNE VIC 3051,102825,5,TP-2016-819,144.9434578,-37.80086079
Post May 16,X001288,COMPLETED,2020,93-119 Kavanagh Street SOUTHBANK VIC 3006,110408,1,TPM-2015-18,144.9635897,-37.82570384
Post May 16,X0002802,COMPLETED,2020,498-504 Swanston Street CARLTON VIC 3053,109380,17,TP-2017-828,144.9637188,-37.80521719
Post May 16,X0006407,COMPLETED,2020,"28 Batman Street, West Melbourne, 3003",100861,0,TP-2019-281,144.9518647,-37.81026913
Post May 16,X0004204,COMPLETED,2020,172-192 Flinders Street MELBOURNE VIC 3000,104018,11,TP-2011-88/B,144.9685651,-37.81660689
Post May 16,X0001664,COMPLETED,2020,49-59 Southbank Boulevard SOUTHBANK VIC 3006,110337,11,ID-2016-5,144.9648113,-37.82262347
Post May 16,X001291,COMPLETED,2020,93-119 Kavanagh Street SOUTHBANK VIC 3006,110408,72,TPM-2015-18,144.9635897,-37.82570384
Post May 16,X001563,COMPLETED,2021,268-270 Lonsdale Street MELBOURNE VIC 3000,105748,5,TP-2016-669,144.9641452,-37.81148397
Post May 16,X0002615,COMPLETED,2021,114-152 Grattan Street CARLTON VIC 3053,104469,11,ID-2017-2,144.9648073,-37.79996957
Post May 16,X0002616,COMPLETED,2021,114-152 Grattan Street CARLTON VIC 3053,104469,6,ID-2017-2,144.9648073,-37.79996957
Post May 16,X0008412,COMPLETED,2021,177-231 Rosslyn Street WEST MELBOURNE VIC 3003,102956,11,TPM-2014-22/B,144.9486,-37.8102
Post May 16,X000223,COMPLETED,2021,The Celtic Club 316-322 Queen Street MELBOURNE VIC 3000,108090,48,TPM-2011-24,144.959303,-37.81120176
Post May 16,X0002605,COMPLETED,2021,623-645 Swanston Street CARLTON VIC 3053,109326,14,TP-2017-761/A,144.9629756,-37.80356808
Post May 16,X000734,COMPLETED,2021,245-261 City Road SOUTHBANK VIC 3006,110371,43,TPM-2009-57,144.9598181,-37.82674968
Post May 16,X001175,COMPLETED,2021,146W-150W Toorak Road SOUTH YARRA VIC 3141,109512,3,TP-2014-1061/C,144.9843618,-37.83764528
Post May 16,X0006805,COMPLETED,2021,"628 Bourke Street, Melbourne, 3000",101170,0,TP-2019-444,144.9548046,-37.81595931
Post May 16,X0005602,COMPLETED,2021,611-669 Elizabeth Street MELBOURNE VIC 3000,103251,9,TPM-2018-21,144.9574997,-37.80324692
Post May 16,X0003211,COMPLETED,2021,"131-151 Therry Street, Melbourne, 3000",109493,10,TPMR-2018-2,144.9589999,-37.80771253
Post May 16,X0002000,COMPLETED,2022,"595 Little Collins Street, MELBOURNE, 3000",105943,33,TP-2017-443,144.9552294,-37.81793442
Post May 16,X0004001,COMPLETED,2022,183-189 A'Beckett Street MELBOURNE VIC 3000,100157,48,TPMR-2015-29/A,144.9580583,-37.8104074
Post May 16,X0007412,COMPLETED,2022,"393 Macaulay Road, Kensington, 3031",106306,8,TP-2018-360/A,144.9338078,-37.79511714
Post May 16,X0008601,COMPLETED,2021,"350 Arden Street, Kensington, 3031",100507,2,TP-2020-151,144.9344,-37.799
Post May 16,X0008804,COMPLETED,2022,150-162 Lonsdale Street MELBOURNE VIC 3000,110709,6,TPMR-2020-19,144.9676,-37.8101
Post May 16,X000828,COMPLETED,2009,Lorimer Place 874-886 Lorimer Street PORT MELBOURNE VIC 3207,600456,2,TP-2006-523,144.9361631,-37.82373118
Post May 16,X0010202,COMPLETED,2022,"512-544 Spencer Street, West Melbourne, 3003",108936,8,TPM-2017-5/A,144.9488,-37.8079
Post May 16,X0009805,APPROVED,,83-89 Coventry Street SOUTHBANK VIC 3006,110447,24,TP-2016-981/A,144.9672,-37.8302
Post May 16,X0004602,COMPLETED,2022,150-162 Lonsdale Street MELBOURNE VIC 3000,110709,21,TPMR-2017-10/A,144.9675734,-37.81012247
Post May 16,X001323,COMPLETED,2022,71-75 City Road SOUTHBANK VIC 3006,110357,49,TPM-2015-37,144.9656151,-37.82232878
Post May 16,X0013400,COMPLETED,2022,"70-74 Jolimont Street, East Melbourne, 3002",105137,5,TP-2022-232,144.9803627,-37.81820617
Post May 16,X0009414,COMPLETED,2022,"St Michaels Primary School 8-14 Brougham Street, North Melbourne, 3051",101326,3,TPM-2020-59,144.9463188,-37.79339324
Post May 16,X0002808,COMPLETED,2023,Flagstaff City Inn 45-55 Dudley Street WEST MELBOURNE VIC 3003,102950,25,TP-2017-866,144.9510278,-37.81010477
Post May 16,X0009412,COMPLETED,2023,"196-200 A'Beckett Street, Melbourne, 3000",100160,28,TP-2020-578,144.9574424,-37.80999239
Post May 16,X000146,COMPLETED,2023,20-30 Bourke Street MELBOURNE VIC 3000,101233,13,TP-2014-64,144.9721526,-37.811187
Post May 16,X0004000,COMPLETED,2023,13-23 Spring Street MELBOURNE VIC 3000,108976,33,TPMR-2018-11,144.9742037,-37.814769
Post May 16,X000177,COMPLETED,2023,244-276 Spencer Street MELBOURNE VIC 3000,694372,68,TPM-2012-1/A,144.9533708,-37.81425664
Post May 16,X000178,COMPLETED,2023,244-276 Spencer Street MELBOURNE VIC 3000,694372,72,TPM-2012-1/A,144.9533708,-37.81425664
Post May 16,X0007609,COMPLETED,2023,"240-248 Victoria Street, North Melbourne, 3051",109842,8,TP-2019-855,144.9581231,-37.80591079
Post May 16,X0009400,COMPLETED,2023,539-557 Collins Street MELBOURNE VIC 3000,102105,35,TPMR-2019-9/A,144.9564,-37.8188
Post May 16,X0006400,COMPLETED,2023,"611-669 Elizabeth Street, Melbourne, 3000",103251,18,TPM-2019-6,144.9574997,-37.80324692
Post May 16,X0006600,COMPLETED,2023,"10-16 Mckillop Street, Melbourne, 3000",106375,7,TP-2019-342,144.9619028,-37.81533109
Post May 16,X0007418,COMPLETED,2023,"14-22 Bruce Street, Kensington, 3031",723542,8,TP-2019-587,144.93415,-37.79855781
Post May 16,X0005210,COMPLETED,2023,310-326 Exhibition Street MELBOURNE VIC 3000,692091,59,TPMR-2016-21/B,144.9695659,-37.80827441
Post May 16,X0008603,COMPLETED,2023,276-284 Russell Street MELBOURNE VIC 3000,108570,28,TP-2020-198,144.9671,-37.8099
Post May 16,X0007421,COMPLETED,2023,140-146 King Street MELBOURNE VIC 3000,105391,57,TPM-2015-13/A,144.9563,-37.8167
Post May 16,X0010801,COMPLETED,2023,17-37 Abbotsford Street WEST MELBOURNE VIC 3003,100002,12,TP-2016-970/B,144.9434178,-37.80717803
Post May 16,X0010802,COMPLETED,2023,17-37 Abbotsford Street WEST MELBOURNE VIC 3003,100002,4,TP-2016-970/B,144.9434178,-37.80717803
Post May 16,X0012400,COMPLETED,2023,41-59 Sims Street WEST MELBOURNE VIC 3003,108800,1,TP-2021-818/A,144.9114167,-37.80171659
Post May 16,X0001650,COMPLETED,2023,"137 Stanley Street, West Melbourne, 3003",109015,4,TP-2017-147,144.9474565,-37.80962821
Post May 16,X001176,COMPLETED,2024,5-15 Shiel Street NORTH MELBOURNE VIC 3051,108697,8,TP-2014-1068,144.943691,-37.79801261
Post May 16,X0010400,APPLIED,,"287-313 Macaulay Road, North Melbourne, 3051",106303,12,TP-2021-53,144.9371088,-37.79545188
Post May 16,X0011800,APPLIED,,"280-286 Macaulay Road, North Melbourne, 3051",617410,12,TP-2021-672,144.9369076,-37.79488185
Post May 16,X0012601,APPLIED,,"30 Albermarle Street, Kensington, 3031",100304,7,TP-2022-66,144.9336766,-37.79540759
Post Oct 22,X0013706,APPLIED,,"156-174 Kensington Road, West Melbourne, 3003",105234,15,TP-2022-481,144.9179043,-37.79896653
Post Oct 22,X0014102,APPLIED,,310-324 Ingles Street PORT MELBOURNE VIC 3207,110580,2,TP-2015-578/B,144.937,-37.8248
Post Oct 2022,X0014602,APPLIED,,607-623 Collins Street MELBOURNE VIC 3000,606461,43,TPMR-2023-4,144.9546898,-37.8192929
Post Oct 2022,X0014803,APPLIED,,65-159 Victoria Street MELBOURNE VIC 3000,108118,0,TPMR-2023-12,144.9576396,-37.80783394
Post Oct 2022,X0015000,APPLIED,,435-437 St Kilda Road MELBOURNE VIC 3004,108631,18,TPM-2023-14,144.9775417,-37.83909815
Post Oct 2022,X0015001,APPLIED,,21-37 Barrett Street KENSINGTON VIC 3031,100818,8,TP-2023-602,144.9351521,-37.79799577
Post Oct 2022,X0015004,APPLIED,,"501-509 King Street, West Melbourne, 3003",105338,5,TP-2019-22/A,144.9511,-37.8081
Post Oct 2022,X0015101,APPLIED,,187-189 Stanley Street WEST MELBOURNE VIC 3003,109019,5,TP-2023-664,144.9461424,-37.81032765
Post Oct 2022,X0015205,APPLIED,,366-422 Abbotsford Street NORTH MELBOURNE VIC 3051,100108,5,TPM-2021-5/B,144.9468176,-37.79748714
Post Oct 2022,X0015506,APPLIED,,"118 City Road, Southbank, 3006",110384,64,TPMR-2019-24/F,144.9629471,-37.8229282
Post Oct 2022,X0015514,APPLIED,,124-126 Jolimont Road EAST MELBOURNE VIC 3002,105127,7,TP-2021-798/A,144.9791577,-37.81768838
Post Oct 2022,X0015602,APPLIED,,"680 Elizabeth Street, Melbourne, 3000",103265,21,TP-2020-609/B,144.9583656,-37.80249304
Post Oct 2022,X0015603,APPLIED,,189-191 Lonsdale Street MELBOURNE VIC 3000,105685,4,TP-2024-177,144.9667499,-37.81121745
Post Oct 2022,X0015606,APPLIED,,"210 Harbour Esplanade, Docklands, 3008",588807,18,TPM-2020-22/B,144.9451755,-37.81318536
Post Oct 2022,X0015700,APPLIED,,640-652 Bourke Street MELBOURNE VIC 3000,101168,71,TPM-2015-26/B,144.9544085,-37.81617703
Post Oct 2022,X0015705,APPLIED,,99-109 Lorimer Street DOCKLANDS VIC 3008,110532,15,ID-2024-4,144.9394049,-37.82425905
Post Oct 2022,X0015706,APPLIED,,99-109 Lorimer Street DOCKLANDS VIC 3008,110532,37,ID-2024-4,144.9394049,-37.82425905
Post Oct 2022,X0015802,APPLIED,,Victoria Harbour Precinct 938 Collins Street DOCKLANDS VIC 3008,106983,17,TPM-2024-10,144.9367403,-37.81977616
Post Oct 2022,X0015805,APPLIED,,268-270 City Road SOUTHBANK VIC 3006,110391,56,TPM-2015-32/C,144.9593463,-37.82606937
Post Oct 2022,X0015811,APPLIED,,137-157 Adderley Street WEST MELBOURNE VIC 3003,100195,9,TP-2017-395/B,144.9468,-37.8101
Post May 16,X0011206,APPROVED,,"1 Spring Street, Melbourne, 3000",108975,32,ID-2021-1,144.9737918,-37.8149934
